{"0": {"gency_code": "0111070010", "area": "\u53f0\u5317\u5340", "county": "\u57fa\u9686\u5e02", "admin_district": "\u4fe1\u7fa9\u5340", "agency_name": "\u885b\u751f\u798f\u5229\u90e8\u57fa\u9686\u91ab\u9662", "address": "\u57fa\u9686\u5e02\u4fe1\u7fa9\u5340\u4fe1\u4e8c\u8def\uff12\uff16\uff18\u865f", "phone_number": "02-24292525", "longitude": "121.748322", "latitude": "25.130456"}, "1": {"gency_code": "1411030013", "area": "\u53f0\u5317\u5340", "county": "\u57fa\u9686\u5e02", "admin_district": "\u6696\u6696\u5340", "agency_name": "\u91ab\u7642\u8ca1\u5718\u6cd5\u4eba\u81fa\u7063\u5340\u7164\u7926\u696d\u57fa\u91d1\u6703\u81fa\u7063\u7926\u5de5\u91ab\u9662", "address": "\u57fa\u9686\u5e02\u6696\u6696\u5340\u6e90\u9060\u8def\uff12\uff19\u865f", "phone_number": "02-24579101", "longitude": "121.733254", "latitude": "25.107904"}, "2": {"gency_code": "0511040010", "area": "\u53f0\u5317\u5340", "county": "\u57fa\u9686\u5e02", "admin_district": "\u4e2d\u6b63\u5340", "agency_name": "\u4e09\u8ecd\u7e3d\u91ab\u9662\u9644\u8a2d\u57fa\u9686\u6c11\u773e\u8a3a\u7642\u670d\u52d9\u8655", "address": "\u57fa\u9686\u5e02\u4e2d\u6b63\u5340\u6b63\u69ae\u8857100\u865f", "phone_number": "02-24231735", "longitude": "121.764267", "latitude": "25.144625"}, "3": {"gency_code": "0101090517", "area": "\u53f0\u5317\u5340", "county": "\u81fa\u5317\u5e02", "admin_district": "\u4e2d\u6b63\u5340", "agency_name": "\u81fa\u5317\u5e02\u7acb\u806f\u5408\u91ab\u9662-\u548c\u5e73\u9662\u5340", "address": "\u81fa\u5317\u5e02\u4e2d\u6b63\u5340\u4e2d\u83ef\u8def\u4e8c\u6bb533\u865f", "phone_number": "02-23889595", "longitude": "121.506986", "latitude": "25.03562226"}, "4": {"gency_code": "0101090517", "area": "\u53f0\u5317\u5340", "county": "\u81fa\u5317\u5e02", "admin_district": "\u5927\u540c\u5340", "agency_name": "\u81fa\u5317\u5e02\u7acb\u806f\u5408\u91ab\u9662-\u4e2d\u8208\u9662\u5340", "address": "\u81fa\u5317\u5e02\u5927\u540c\u5340\u912d\u5dde\u8def145\u865f", "phone_number": "02-25523234", "longitude": "121.5093209", "latitude": "25.0509696"}, "5": {"gency_code": "0101090517", "area": "\u53f0\u5317\u5340", "county": "\u81fa\u5317\u5e02", "admin_district": "\u58eb\u6797\u5340", "agency_name": "\u81fa\u5317\u5e02\u7acb\u806f\u5408\u91ab\u9662-\u967d\u660e\u9662\u5340", "address": "\u81fa\u5317\u5e02\u58eb\u6797\u5340\u96e8\u8072\u8857105\u865f", "phone_number": "02-28353456#5145", "longitude": "121.5315656", "latitude": "25.105194"}, "6": {"gency_code": "0101090517", "area": "\u53f0\u5317\u5340", "county": "\u81fa\u5317\u5e02", "admin_district": "\u5357\u6e2f\u5340", "agency_name": "\u81fa\u5317\u5e02\u7acb\u806f\u5408\u91ab\u9662-\u5fe0\u5b5d\u9662\u5340", "address": "\u81fa\u5317\u5e02\u5357\u6e2f\u5340\u540c\u5fb7\u8def87\u865f", "phone_number": "02-27861288", "longitude": "121.5860755", "latitude": "25.0465327"}, "7": {"gency_code": "1101010021", "area": "\u53f0\u5317\u5340", "county": "\u81fa\u5317\u5e02", "admin_district": "\u677e\u5c71\u5340", "agency_name": "\u57fa\u7763\u5fa9\u81e8\u5b89\u606f\u65e5\u6703\u91ab\u7642\u8ca1\u5718\u6cd5\u4eba\u81fa\u5b89\u91ab\u9662", "address": "\u81fa\u5317\u5e02\u677e\u5c71\u5340\u516b\u5fb7\u8def\u4e8c\u6bb5424,426\u865f", "phone_number": "02-27718151", "longitude": "121.547339", "latitude": "25.0480541"}, "8": {"gency_code": "0501010019", "area": "\u53f0\u5317\u5340", "county": "\u81fa\u5317\u5e02", "admin_district": "\u677e\u5c71\u5340", "agency_name": "\u4e09\u8ecd\u7e3d\u91ab\u9662\u677e\u5c71\u5206\u9662\u9644\u8a2d\u6c11\u773e\u8a3a\u7642\u670d\u52d9\u8655", "address": "\u81fa\u5317\u5e02\u677e\u5c71\u5340\u5065\u5eb7\u8def\uff11\uff13\uff11\u865f", "phone_number": "02-27642151", "longitude": "121.557672", "latitude": "25.054373"}, "9": {"gency_code": "1101010012", "area": "\u53f0\u5317\u5340", "county": "\u81fa\u5317\u5e02", "admin_district": "\u677e\u5c71\u5340", "agency_name": "\u9577\u5e9a\u91ab\u7642\u8ca1\u5718\u6cd5\u4eba\u53f0\u5317\u9577\u5e9a\u7d00\u5ff5\u91ab\u9662", "address": "\u81fa\u5317\u5e02\u677e\u5c71\u5340\u6566\u5316\u5317\u8def\uff11\uff19\uff19\u865f", "phone_number": "02-27135211", "longitude": "121.5496556", "latitude": "25.0555992"}, "10": {"gency_code": "1101110026", "area": "\u53f0\u5317\u5340", "county": "\u81fa\u5317\u5e02", "admin_district": "\u5167\u6e56\u5340", "agency_name": "\u5eb7\u5be7\u91ab\u7642\u8ca1\u5718\u6cd5\u4eba\u5eb7\u5be7\u91ab\u9662", "address": "\u81fa\u5317\u5e02\u5167\u6e56\u5340\u6210\u529f\u8def\u4e94\u6bb5\uff14\uff12\uff10\u5df7\uff12\uff16\u865f", "phone_number": "02-26345500", "longitude": "121.6089476", "latitude": "25.0758907"}, "11": {"gency_code": "0901190010", "area": "\u53f0\u5317\u5340", "county": "\u81fa\u5317\u5e02", "admin_district": "\u842c\u83ef\u5340", "agency_name": "\u897f\u5712\u91ab\u7642\u793e\u5718\u6cd5\u4eba\u897f\u5712\u91ab\u9662", "address": "\u81fa\u5317\u5e02\u842c\u83ef\u5340\u897f\u5712\u8def\u4e8c\u6bb5270\u865f", "phone_number": "02-23076968", "longitude": "121.494405", "latitude": "25.027743"}, "12": {"gency_code": "1501010010", "area": "\u53f0\u5317\u5340", "county": "\u81fa\u5317\u5e02", "admin_district": "\u677e\u5c71\u5340", "agency_name": "\u535a\u4ec1\u7d9c\u5408\u91ab\u9662", "address": "\u81fa\u5317\u5e02\u677e\u5c71\u5340\u5149\u5fa9\u5317\u8def66\u865f\u300168\u865f\u5730\u4e0b\u4e00\u5c64\u300168\u865f\u300168\u865f2\u81f37\u6a13\u300168\u865f2\u6a13\u4e4b1\u81f37\u6a13\u4e4b1\u300168\u865f2\u6a13\u4e4b2\u81f37\u6a13\u4e4b2", "phone_number": "02-25786677#2019\u30010978-199960", "longitude": "121.5576835", "latitude": "25.0499097"}, "13": {"gency_code": "0701160518", "area": "\u53f0\u5317\u5340", "county": "\u81fa\u5317\u5e02", "admin_district": "\u5317\u6295\u5340", "agency_name": "\u81fa\u5317\u5e02\u7acb\u95dc\u6e21\u91ab\u9662(\u59d4\u8a17\u81fa\u5317\u69ae\u6c11\u7e3d\u91ab\u9662\u7d93\u71df)", "address": "\u81fa\u5317\u5e02\u5317\u6295\u5340\u77e5\u884c\u8def225\u5df712\u865f", "phone_number": "02-28587000", "longitude": "121.4662583", "latitude": "25.12048992"}, "14": {"gency_code": "0501160014", "area": "\u53f0\u5317\u5340", "county": "\u81fa\u5317\u5e02", "admin_district": "\u5317\u6295\u5340", "agency_name": "\u4e09\u8ecd\u7e3d\u91ab\u9662\u5317\u6295\u5206\u9662\u9644\u8a2d\u6c11\u773e\u8a3a\u7642\u670d\u52d9\u8655", "address": "\u81fa\u5317\u5e02\u5317\u6295\u5340\u65b0\u6c11\u8def60\u865f", "phone_number": "02-28959808", "longitude": "121.5098927", "latitude": "25.13960801"}, "15": {"gency_code": "1231030015", "area": "\u53f0\u5317\u5340", "county": "\u65b0\u5317\u5e02", "admin_district": "\u6c38\u548c\u5340", "agency_name": "\u5929\u4e3b\u6559\u8015\u8398\u91ab\u7642\u8ca1\u5718\u6cd5\u4eba\u6c38\u548c\u8015\u8398\u91ab\u9662", "address": "\u65b0\u5317\u5e02\u6c38\u548c\u5340\u4e2d\u8208\u885780\u865f\u5730\u4e0b1\u6a13\u81f3\u5730\u4e0a6\u6a13\u53ca\u570b\u5149\u8def123\u865f\u5730\u4e0b3\u6a13\u81f3\u5730\u4e0a11\u6a13", "phone_number": "02-29286060", "longitude": "121.51787", "latitude": "25.011874"}, "16": {"gency_code": "1331160010", "area": "\u53f0\u5317\u5340", "county": "\u65b0\u5317\u5e02", "admin_district": "\u6cf0\u5c71\u5340", "agency_name": "\u8f14\u4ec1\u5927\u5b78\u5b78\u6821\u8ca1\u5718\u6cd5\u4eba\u8f14\u4ec1\u5927\u5b78\u9644\u8a2d\u91ab\u9662", "address": "\u65b0\u5317\u5e02\u6cf0\u5c71\u5340\u8cb4\u5b50\u8def69\u865f(\u5730\u4e0b4\u5c64\u3001\u5730\u4e0a1\u81f311\u5c64\u53ca13\u5c64\u300115\u5c64)", "phone_number": "02-85128888", "longitude": "121.430799", "latitude": "25.039676"}, "17": {"gency_code": "1131110516", "area": "\u53f0\u5317\u5340", "county": "\u65b0\u5317\u5e02", "admin_district": "\u6c50\u6b62\u5340", "agency_name": "\u570b\u6cf0\u91ab\u7642\u8ca1\u5718\u6cd5\u4eba\u6c50\u6b62\u570b\u6cf0\u7d9c\u5408\u91ab\u9662", "address": "\u65b0\u5317\u5e02\u6c50\u6b62\u5340\u5efa\u6210\u8def59\u5df72\u865f\u5730\u4e0b4\u6a13\u81f3\u5730\u4e0a12\u6a13", "phone_number": "02-26482121#3910", "longitude": "121.661084", "latitude": "25.072872"}, "18": {"gency_code": "0131060029", "area": "\u53f0\u5317\u5340", "county": "\u65b0\u5317\u5e02", "admin_district": "\u65b0\u838a\u5340", "agency_name": "\u885b\u751f\u798f\u5229\u90e8\u81fa\u5317\u91ab\u9662", "address": "\u65b0\u5317\u5e02\u65b0\u838a\u5340\u601d\u6e90\u8def127\u865f", "phone_number": "02-22765566", "longitude": "121.459623", "latitude": "25.043241"}, "19": {"gency_code": "1131090019", "area": "\u53f0\u5317\u5340", "county": "\u65b0\u5317\u5e02", "admin_district": "\u4e09\u5cfd\u5340", "agency_name": "\u884c\u5929\u5bae\u91ab\u7642\u5fd7\u696d\u91ab\u7642\u8ca1\u5718\u6cd5\u4eba\u6069\u4e3b\u516c\u91ab\u9662", "address": "\u65b0\u5317\u5e02\u4e09\u5cfd\u5340\u5fa9\u8208\u8def399\u865f", "phone_number": "02-26723456#6105", "longitude": "121.363008", "latitude": "24.938385"}, "20": {"gency_code": "0131020016", "area": "\u53f0\u5317\u5340", "county": "\u65b0\u5317\u5e02", "admin_district": "\u4e09\u91cd\u5340", "agency_name": "\u65b0\u5317\u5e02\u7acb\u806f\u5408\u91ab\u9662", "address": "\u65b0\u5317\u5e02\u4e09\u91cd\u5340\u65b0\u5317\u5927\u90531\u6bb53\u865f\u30013\u4e4b1\u865f", "phone_number": "02-29829111", "longitude": "121.490998", "latitude": "25.060821"}, "21": {"gency_code": "0131020016", "area": "\u53f0\u5317\u5340", "county": "\u65b0\u5317\u5e02", "admin_district": "\u677f\u6a4b\u5340", "agency_name": "\u65b0\u5317\u5e02\u7acb\u806f\u5408\u91ab\u9662-\u677f\u6a4b\u9662\u5340", "address": "\u65b0\u5317\u5e02\u677f\u6a4b\u5340\u82f1\u58eb\u8def198\u865f", "phone_number": "02-22575151", "longitude": "121.457634", "latitude": "25.023779"}, "22": {"gency_code": "0431270012", "area": "\u53f0\u5317\u5340", "county": "\u65b0\u5317\u5e02", "admin_district": "\u91d1\u5c71\u5340", "agency_name": "\u570b\u7acb\u81fa\u7063\u5927\u5b78\u91ab\u5b78\u9662\u9644\u8a2d\u91ab\u9662\u91d1\u5c71\u5206\u9662", "address": "\u65b0\u5317\u5e02\u91d1\u5c71\u5340\u4e94\u6e56\u91cc\u7389\u7210\u8def7\u865f", "phone_number": "02-24989898", "longitude": "121.628395", "latitude": "25.219556"}, "23": {"gency_code": "1531060180", "area": "\u53f0\u5317\u5340", "county": "\u65b0\u5317\u5e02", "admin_district": "\u65b0\u838a\u5340", "agency_name": "\u65b0\u6cf0\u7d9c\u5408\u91ab\u9662", "address": "\u65b0\u5317\u5e02\u65b0\u838a\u5340\u65b0\u6a39\u8def176\u865f", "phone_number": "02-29962121", "longitude": "121.434351", "latitude": "25.021432"}, "24": {"gency_code": "1531071030", "area": "\u53f0\u5317\u5340", "county": "\u65b0\u5317\u5e02", "admin_district": "\u6a39\u6797\u5340", "agency_name": "\u4ec1\u611b\u91ab\u9662", "address": "\u65b0\u5317\u5e02\u6a39\u6797\u5340\u6587\u5316\u88579\u865f(\u5730\u4e0b1\u30012\u6a13\u53ca\u5730\u4e0a1\u6a13\u81f38\u6a13)", "phone_number": "02-26834567", "longitude": "121.420039", "latitude": "24.987188"}, "25": {"gency_code": "1531120038", "area": "\u53f0\u5317\u5340", "county": "\u65b0\u5317\u5e02", "admin_district": "\u745e\u82b3\u5340", "agency_name": "\u745e\u82b3\u7926\u5de5\u91ab\u9662", "address": "\u65b0\u5317\u5e02\u745e\u82b3\u5340\u4e00\u5751\u8def71\u4e4b2\u865f", "phone_number": "02-24974101", "longitude": "121.80217", "latitude": "25.108602"}, "26": {"gency_code": "1231050017", "area": "\u53f0\u5317\u5340", "county": "\u65b0\u5317\u5e02", "admin_district": "\u65b0\u5e97\u5340", "agency_name": "\u5929\u4e3b\u6559\u8015\u8398\u91ab\u7642\u8ca1\u5718\u6cd5\u4eba\u8015\u8398\u91ab\u9662\u5b89\u5eb7\u9662\u5340", "address": "\u65b0\u5317\u5e02\u65b0\u5e97\u5340\u8eca\u5b50\u8def15\u865f", "phone_number": "02-22123066", "longitude": "121.5038556", "latitude": "24.95367737"}, "27": {"gency_code": "1131130018", "area": "\u53f0\u5317\u5340", "county": "\u65b0\u5317\u5e02", "admin_district": "\u571f\u57ce\u5340", "agency_name": "\u65b0\u5317\u5e02\u7acb\u571f\u57ce\u91ab\u9662\uff08\u59d4\u8a17\u9577\u5e9a\u91ab\u7642\u8ca1\u5718\u6cd5\u4eba\u8208\u5efa\u7d93\u71df\uff09", "address": "\u65b0\u5317\u5e02\u571f\u57ce\u5340\u91d1\u57ce\u8def2\u6bb56\u865f", "phone_number": "02-22630588", "longitude": "121.4487698", "latitude": "24.97632289"}, "28": {"gency_code": "1531041390", "area": "\u53f0\u5317\u5340", "county": "\u65b0\u5317\u5e02", "admin_district": "\u4e2d\u548c\u5340", "agency_name": "\u6021\u548c\u91ab\u9662", "address": "\u65b0\u5317\u5e02\u4e2d\u548c\u5340\u9023\u57ce\u8def49\u865f", "phone_number": "02-22450009", "longitude": "121.4985288", "latitude": "25.00190762"}, "29": {"gency_code": "1531131157", "area": "\u53f0\u5317\u5340", "county": "\u65b0\u5317\u5e02", "admin_district": "\u571f\u57ce\u5340", "agency_name": "\u6069\u6a3a\u91ab\u9662", "address": "\u65b0\u5317\u5e02\u571f\u57ce\u5340\u4e2d\u592e\u8def\u4e00\u6bb57\u4e4b18\u865f", "phone_number": "02-22639955", "longitude": "121.4488352", "latitude": "24.9911882"}, "30": {"gency_code": "1134010022", "area": "\u53f0\u5317\u5340", "county": "\u5b9c\u862d\u7e23", "admin_district": "\u5b9c\u862d\u5e02", "agency_name": "\u5b9c\u862d\u4ec1\u611b\u91ab\u7642\u8ca1\u5718\u6cd5\u4eba\u5b9c\u862d\u4ec1\u611b\u91ab\u9662", "address": "\u5b9c\u862d\u7e23\u5b9c\u862d\u5e02\u4e2d\u5c71\u8def\u4e8c\u6bb5260\u865f", "phone_number": "03-9321888", "longitude": "121.754451", "latitude": "24.748723"}, "31": {"gency_code": "0434010518", "area": "\u53f0\u5317\u5340", "county": "\u5b9c\u862d\u7e23", "admin_district": "\u5b9c\u862d\u5e02", "agency_name": "\u570b\u7acb\u967d\u660e\u5927\u5b78\u9644\u8a2d\u91ab\u9662", "address": "\u5b9c\u862d\u7e23\u5b9c\u862d\u5e02\u6821\u820d\u8def169\u865f", "phone_number": "03-9325192", "longitude": "121.754029", "latitude": "24.757853"}, "32": {"gency_code": "0634070018", "area": "\u53f0\u5317\u5340", "county": "\u5b9c\u862d\u7e23", "admin_district": "\u54e1\u5c71\u9109", "agency_name": "\u81fa\u5317\u69ae\u6c11\u7e3d\u91ab\u9662\u54e1\u5c71\u5206\u9662", "address": "\u5b9c\u862d\u7e23\u54e1\u5c71\u9109\u69ae\u5149\u8def386\u865f", "phone_number": "03-9222141", "longitude": "121.687824", "latitude": "24.721919"}, "33": {"gency_code": "1134020028", "area": "\u53f0\u5317\u5340", "county": "\u5b9c\u862d\u7e23", "admin_district": "\u7f85\u6771\u93ae", "agency_name": "\u5929\u4e3b\u6559\u9748\u91ab\u6703\u91ab\u7642\u8ca1\u5718\u6cd5\u4eba\u7f85\u6771\u8056\u6bcd\u91ab\u9662", "address": "\u5b9c\u862d\u7e23\u7f85\u6771\u93ae\u4e2d\u6b63\u5357\u8def160\u865f", "phone_number": "03-9544106", "longitude": "121.77159", "latitude": "24.67187"}, "34": {"gency_code": "0634030014", "area": "\u53f0\u5317\u5340", "county": "\u5b9c\u862d\u7e23", "admin_district": "\u8607\u6fb3\u93ae", "agency_name": "\u81fa\u5317\u69ae\u6c11\u7e3d\u91ab\u9662\u8607\u6fb3\u5206\u9662", "address": "\u5b9c\u862d\u7e23\u8607\u6fb3\u93ae\u8607\u6ff1\u8def\u4e00\u6bb5301\u865f", "phone_number": "03-9905106", "longitude": "121.848611", "latitude": "24.614096"}, "35": {"gency_code": "1134050026", "area": "\u53f0\u5317\u5340", "county": "\u5b9c\u862d\u7e23", "admin_district": "\u7901\u6eaa\u9109", "agency_name": "\u5929\u4e3b\u6559\u9748\u91ab\u6703\u91ab\u7642\u8ca1\u5718\u6cd5\u4eba\u7901\u6eaa\u674f\u548c\u91ab\u9662", "address": "\u5b9c\u862d\u7e23\u7901\u6eaa\u9109\u7901\u6eaa\u8def4\u6bb5129\u865f", "phone_number": "03-9886996", "longitude": "121.769144", "latitude": "24.820582"}, "36": {"gency_code": "1134020019", "area": "\u53f0\u5317\u5340", "county": "\u5b9c\u862d\u7e23", "admin_district": "\u7f85\u6771\u93ae", "agency_name": "\u91ab\u7642\u8ca1\u5718\u6cd5\u4eba\u7f85\u8a31\u57fa\u91d1\u6703\u7f85\u6771\u535a\u611b\u91ab\u9662", "address": "\u5b9c\u862d\u7e23\u7f85\u6771\u93ae\u5357\u660c\u885783\u865f", "phone_number": "03-9543131#1131", "longitude": "121.772942", "latitude": "24.671778"}, "37": {"gency_code": "0190030516", "area": "\u53f0\u5317\u5340", "county": "\u91d1\u9580\u7e23", "admin_district": "\u91d1\u6e56\u93ae", "agency_name": "\u885b\u751f\u798f\u5229\u90e8\u91d1\u9580\u91ab\u9662", "address": "\u91d1\u9580\u7e23\u91d1\u6e56\u93ae\u5fa9\u8208\u8def2\u865f", "phone_number": "082-332546#11801", "longitude": "118.4160218", "latitude": "24.4431883"}, "38": {"gency_code": "0131060010", "area": "\u53f0\u5317\u5340", "county": "\u65b0\u5317\u5e02", "admin_district": "\u65b0\u838a\u5340", "agency_name": "\u885b\u751f\u798f\u5229\u90e8\u6a02\u751f\u7642\u990a\u9662", "address": "\u6843\u5712\u7e23\u9f9c\u5c71\u9109\u842c\u58fd\u8def1\u6bb550\u5df72\u865f\u53ca\u65b0\u5317\u5e02\u65b0\u838a\u5340\u4e2d\u6b63\u8def794\u865f", "phone_number": "02-82006600", "longitude": "121.407968", "latitude": "25.020372"}, "39": {"gency_code": "0132110519", "area": "\u5317\u5340", "county": "\u6843\u5712\u5e02", "admin_district": "\u65b0\u5c4b\u5340", "agency_name": "\u885b\u751f\u798f\u5229\u90e8\u6843\u5712\u91ab\u9662\u65b0\u5c4b\u5206\u9662", "address": "\u6843\u5712\u5e02\u65b0\u5c4b\u5340\u65b0\u5c4b\u675114\u9130\u65b0\u798f\u4e8c\u8def\u516d\u865f", "phone_number": "03-4971989", "longitude": "121.107189", "latitude": "24.969856"}, "40": {"gency_code": "0532090029", "area": "\u5317\u5340", "county": "\u6843\u5712\u5e02", "admin_district": "\u9f8d\u6f6d\u5340", "agency_name": "\u570b\u8ecd\u6843\u5712\u7e3d\u91ab\u9662\u9644\u8a2d\u6c11\u773e\u8a3a\u7642\u670d\u52d9\u8655", "address": "\u6843\u5712\u5e02\u9f8d\u6f6d\u5340\u4e2d\u8208\u8def168\u865f", "phone_number": "03-4799595", "longitude": "121.234867", "latitude": "24.877602"}, "41": {"gency_code": "0632010014", "area": "\u5317\u5340", "county": "\u6843\u5712\u5e02", "admin_district": "\u6843\u5712\u5340", "agency_name": "\u81fa\u5317\u69ae\u6c11\u7e3d\u91ab\u9662\u6843\u5712\u5206\u9662", "address": "\u6843\u5712\u5e02\u6843\u5712\u5340\u6210\u529f\u8def\u4e09\u6bb5\u4e00\u25cb\u25cb\u865f", "phone_number": "03-3384889", "longitude": "121.325155", "latitude": "25.00402"}, "42": {"gency_code": "1532011154", "area": "\u5317\u5340", "county": "\u6843\u5712\u5e02", "admin_district": "\u6843\u5712\u5340", "agency_name": "\u654f\u76db\u7d9c\u5408\u91ab\u9662", "address": "\u6843\u5712\u5e02\u6843\u5712\u5340\u7d93\u570b\u8def168\u865f", "phone_number": "03-3179599", "longitude": "121.306314", "latitude": "25.016234"}, "43": {"gency_code": "1132010024", "area": "\u5317\u5340", "county": "\u6843\u5712\u5e02", "admin_district": "\u6843\u5712\u5340", "agency_name": "\u6c99\u723e\u5fb7\u8056\u4fdd\u797f\u4fee\u5973\u6703\u91ab\u7642\u8ca1\u5718\u6cd5\u4eba\u8056\u4fdd\u797f\u91ab\u9662", "address": "\u6843\u5712\u5e02\u6843\u5712\u5340\u5efa\u65b0\u8857123\u865f", "phone_number": "03-3613141", "longitude": "121.312242", "latitude": "24.982288"}, "44": {"gency_code": "1532040066", "area": "\u5317\u5340", "county": "\u6843\u5712\u5e02", "admin_district": "\u694a\u6885\u5340", "agency_name": "\u6021\u4ec1\u7d9c\u5408\u91ab\u9662", "address": "\u6843\u5712\u5e02\u694a\u6885\u5340\u694a\u65b0\u5317\u8def\u4e09\u4e8c\u4e00\u5df7\u4e09\uff10\u865f", "phone_number": "03-4855566", "longitude": "121.155427", "latitude": "24.916951"}, "45": {"gency_code": "1532040039", "area": "\u5317\u5340", "county": "\u6843\u5712\u5e02", "admin_district": "\u694a\u6885\u5340", "agency_name": "\u5929\u6210\u91ab\u9662", "address": "\u6843\u5712\u5e02\u694a\u6885\u5340\u4e2d\u5c71\u5317\u8def\u4e00\u6bb5\u4e09\u4e94\u516d\u865f", "phone_number": "03-4782350", "longitude": "121.1571669", "latitude": "24.962516"}, "46": {"gency_code": "1532100049", "area": "\u5317\u5340", "county": "\u6843\u5712\u5e02", "admin_district": "\u5e73\u93ae\u5340", "agency_name": "\u806f\u65b0\u570b\u969b\u91ab\u9662", "address": "\u6843\u5712\u5e02\u5e73\u93ae\u5340\u5ee3\u6cf0\u8def\u4e03\u4e03\u865f\u3001\u6843\u5712\u5e02\u5e73\u93ae\u5340\u5ef6\u5e73\u8def\u4e8c\u6bb5430\u5df7115\u865f", "phone_number": "03-4941234", "longitude": "121.20496", "latitude": "24.94612"}, "47": {"gency_code": "0932020025", "area": "\u5317\u5340", "county": "\u6843\u5712\u5e02", "admin_district": "\u4e2d\u58e2\u5340", "agency_name": "\u5929\u6210\u91ab\u7642\u793e\u5718\u6cd5\u4eba\u5929\u665f\u91ab\u9662", "address": "\u6843\u5712\u5e02\u4e2d\u58e2\u5340\u5ef6\u5e73\u8def155\u865f", "phone_number": "03-4629292", "longitude": "121.229327", "latitude": "24.962795"}, "48": {"gency_code": "1532021383", "area": "\u5317\u5340", "county": "\u6843\u5712\u5e02", "admin_district": "\u4e2d\u58e2\u5340", "agency_name": "\u61f7\u5be7\u91ab\u9662", "address": "\u6843\u5712\u5e02\u4e2d\u58e2\u5340\u5fd7\u5ee3\u8def119\u865f", "phone_number": "03-4919119", "longitude": "121.2055551", "latitude": "24.96146942"}, "49": {"gency_code": "1132071036", "area": "\u5317\u5340", "county": "\u6843\u5712\u5e02", "admin_district": "\u9f9c\u5c71\u5340", "agency_name": "\u9577\u5e9a\u91ab\u7642\u8ca1\u5718\u6cd5\u4eba\u6843\u5712\u9577\u5e9a\u7d00\u5ff5\u91ab\u9662", "address": "\u6843\u5712\u5e02\u9f9c\u5c71\u5340\u9802\u6e56\u8def123\u865f", "phone_number": "03-3196200", "longitude": "121.3667802", "latitude": "25.02988402"}, "50": {"gency_code": "2332130017", "area": "\u5317\u5340", "county": "\u6843\u5712\u5e02", "admin_district": "\u5fa9\u8208\u5340", "agency_name": "\u5fa9\u8208\u5340\u885b\u751f\u6240", "address": "\u6843\u5712\u5e02\u5fa9\u8208\u5340\u6fa4\u4ec1\u91cc\u4e2d\u6b63\u8def25\u865f", "phone_number": "03-3822325", "longitude": "121.3510651", "latitude": "24.81512769"}, "51": {"gency_code": "0512040014", "area": "\u5317\u5340", "county": "\u65b0\u7af9\u5e02", "admin_district": "\u5317\u5340", "agency_name": "\u570b\u8ecd\u65b0\u7af9\u7e3d\u91ab\u9662\u9644\u8a2d\u6c11\u773e\u8a3a\u7642\u670d\u52d9\u8655", "address": "\u65b0\u7af9\u5e02\u5317\u5340\u6b66\u9675\u8def3\u865f", "phone_number": "03-5348181#325117", "longitude": "120.961966", "latitude": "24.816144"}, "52": {"gency_code": "1112010528", "area": "\u5317\u5340", "county": "\u65b0\u7af9\u5e02", "admin_district": "\u6771\u5340", "agency_name": "\u570b\u6cf0\u91ab\u7642\u8ca1\u5718\u6cd5\u4eba\u65b0\u7af9\u570b\u6cf0\u7d9c\u5408\u91ab\u9662", "address": "\u65b0\u7af9\u5e02\u6771\u5340\u798f\u5fb7\u91cc\u4e2d\u83ef\u8def\u4e8c\u6bb5\u516d\u4e03\u516b\u865f\u53ca\u516d\u4e03\u516b\u865f\u4e4b\u4e00", "phone_number": "03-5278999#7999", "longitude": "120.965227", "latitude": "24.798257"}, "53": {"gency_code": "1512011185", "area": "\u5317\u5340", "county": "\u65b0\u7af9\u5e02", "admin_district": "\u6771\u5340", "agency_name": "\u5357\u9580\u7d9c\u5408\u91ab\u9662", "address": "\u65b0\u7af9\u5e02\u6771\u5340\u6210\u529f\u91cc\u6797\u68ee\u8def20\u865f", "phone_number": "03-5261122#150", "longitude": "120.969682", "latitude": "24.80222"}, "54": {"gency_code": "0433030016", "area": "\u5317\u5340", "county": "\u65b0\u7af9\u7e23", "admin_district": "\u7af9\u6771\u93ae", "agency_name": "\u570b\u7acb\u81fa\u7063\u5927\u5b78\u91ab\u5b78\u9662\u9644\u8a2d\u91ab\u9662\u65b0\u7af9\u81fa\u5927\u5206\u9662\u751f\u91ab\u91ab\u9662\u7af9\u6771\u9662\u5340", "address": "\u65b0\u7af9\u7e23\u7af9\u6771\u93ae\u81f3\u5584\u8def52\u865f", "phone_number": "03-5943248#1190", "longitude": "121.09328", "latitude": "24.719099"}, "55": {"gency_code": "0633030010", "area": "\u5317\u5340", "county": "\u65b0\u7af9\u7e23", "admin_district": "\u7af9\u6771\u93ae", "agency_name": "\u81fa\u5317\u69ae\u6c11\u7e3d\u91ab\u9662\u65b0\u7af9\u5206\u9662", "address": "\u65b0\u7af9\u7e23\u7af9\u6771\u93ae\u4e2d\u8c50\u8def\u4e00\u6bb581\u865f", "phone_number": "03-5962134", "longitude": "121.100178", "latitude": "24.722617"}, "56": {"gency_code": "1333050017", "area": "\u5317\u5340", "county": "\u65b0\u7af9\u7e23", "admin_district": "\u7af9\u5317\u5e02", "agency_name": "\u4e2d\u570b\u91ab\u85e5\u5927\u5b78\u65b0\u7af9\u9644\u8a2d\u91ab\u9662", "address": "\u65b0\u7af9\u7e23\u7af9\u5317\u5e02\u8208\u9686\u8def\u4e00\u6bb5199\u865f", "phone_number": "03-5580558", "longitude": "121.001989", "latitude": "24.824037"}, "57": {"gency_code": "0433050018", "area": "\u5317\u5340", "county": "\u65b0\u7af9\u7e23", "admin_district": "\u7af9\u5317\u5e02", "agency_name": "\u570b\u7acb\u81fa\u7063\u5927\u5b78\u91ab\u5b78\u9662\u9644\u8a2d\u91ab\u9662\u65b0\u7af9\u81fa\u5927\u5206\u9662\u751f\u91ab\u91ab\u9662\u7af9\u5317\u9662\u5340", "address": "\u65b0\u7af9\u7e23\u7af9\u5317\u5e02\u751f\u91ab\u8def\u4e00\u6bb52\u865f302", "phone_number": "03-6677600#532324", "longitude": "121.043718", "latitude": "24.80607"}, "58": {"gency_code": "1133060019", "area": "\u5317\u5340", "county": "\u65b0\u7af9\u7e23", "admin_district": "\u6e56\u53e3\u9109", "agency_name": "\u5929\u4e3b\u6559\u4ec1\u6148\u91ab\u7642\u8ca1\u5718\u6cd5\u4eba\u4ec1\u6148\u91ab\u9662", "address": "\u65b0\u7af9\u7e23\u6e56\u53e3\u9109\u5fe0\u5b5d\u8def\uff12\uff19\u865f", "phone_number": "03-5993500#2190", "longitude": "121.045474", "latitude": "24.900496"}, "59": {"gency_code": "1533051063", "area": "\u5317\u5340", "county": "\u65b0\u7af9\u7e23", "admin_district": "\u7af9\u5317\u5e02", "agency_name": "\u5927\u5b89\u91ab\u9662", "address": "\u65b0\u7af9\u7e23\u7af9\u5317\u5e02\u535a\u611b\u8857318\u5df76\u865f", "phone_number": "03-5557188", "longitude": "121.0081583", "latitude": "24.83498111"}, "60": {"gency_code": "1533051072", "area": "\u5317\u5340", "county": "\u65b0\u7af9\u7e23", "admin_district": "\u7af9\u5317\u5e02", "agency_name": "\u65b0\u4ec1\u91ab\u9662", "address": "\u65b0\u7af9\u7e23\u7af9\u5317\u5e02\u535a\u611b\u8857331\u865f", "phone_number": "03-5552039", "longitude": "121.0078125", "latitude": "24.83560451"}, "61": {"gency_code": "1535010051", "area": "\u5317\u5340", "county": "\u82d7\u6817\u7e23", "admin_district": "\u82d7\u6817\u5e02", "agency_name": "\u5927\u5343\u7d9c\u5408\u91ab\u9662", "address": "\u82d7\u6817\u7e23\u82d7\u6817\u5e02\u606d\u656c\u8def36 \u865f", "phone_number": "037-357125", "longitude": "120.8149327", "latitude": "24.54986318"}, "62": {"gency_code": "0135010016", "area": "\u5317\u5340", "county": "\u82d7\u6817\u7e23", "admin_district": "\u82d7\u6817\u5e02", "agency_name": "\u885b\u751f\u798f\u5229\u90e8\u82d7\u6817\u91ab\u9662", "address": "\u82d7\u6817\u7e23\u82d7\u6817\u5e02\u70ba\u516c\u8def747\u865f", "phone_number": "037-261920", "longitude": "120.840405", "latitude": "24.575655"}, "63": {"gency_code": "1135050020", "area": "\u5317\u5340", "county": "\u82d7\u6817\u7e23", "admin_district": "\u982d\u4efd\u5e02", "agency_name": "\u70ba\u606d\u91ab\u7642\u8ca1\u5718\u6cd5\u4eba\u70ba\u606d\u7d00\u5ff5\u91ab\u9662", "address": "\u82d7\u6817\u7e23\u982d\u4efd\u5e02\u4fe1\u7fa9\u8def128\u865f", "phone_number": "037-676811", "longitude": "120.907345", "latitude": "24.687096"}, "64": {"gency_code": "0935020027", "area": "\u5317\u5340", "county": "\u82d7\u6817\u7e23", "admin_district": "\u82d1\u88e1\u93ae", "agency_name": "\u674e\u7d9c\u5408\u91ab\u7642\u793e\u5718\u6cd5\u4eba\u82d1\u88e1\u674e\u7d9c\u5408\u91ab\u9662", "address": "\u82d7\u6817\u7e23\u82d1\u88e1\u93ae\u548c\u5e73\u8def168\u865f", "phone_number": "037-862387", "longitude": "120.65272", "latitude": "24.44182"}, "65": {"gency_code": "1535081078", "area": "\u5317\u5340", "county": "\u82d7\u6817\u7e23", "admin_district": "\u5927\u6e56\u9109", "agency_name": "\u5927\u9806\u91ab\u9662", "address": "\u82d7\u6817\u7e23\u5927\u6e56\u9109\u4e2d\u6b63\u8def\u56db\u5341\u516b\u4e4b\u4e94\u865f", "phone_number": "037-997666", "longitude": "120.867619", "latitude": "24.422435"}, "66": {"gency_code": "1535051178", "area": "\u5317\u5340", "county": "\u82d7\u6817\u7e23", "admin_district": "\u982d\u4efd\u5e02", "agency_name": "\u91cd\u5149\u91ab\u9662", "address": "\u82d7\u6817\u7e23\u982d\u4efd\u5e02\u4e2d\u83ef\u8def1037\u865f", "phone_number": "03-7682666", "longitude": "120.9086611", "latitude": "24.6866964"}, "67": {"gency_code": "1535010024", "area": "\u5317\u5340", "county": "\u82d7\u6817\u7e23", "admin_district": "\u82d7\u6817\u5e02", "agency_name": "\u5354\u548c\u91ab\u9662", "address": "\u82d7\u6817\u7e23\u82d7\u6817\u5e02\u4e2d\u6b63\u8def1367\u865f", "phone_number": "03-7352631", "longitude": "120.8176672", "latitude": "24.54129848"}, "68": {"gency_code": "1535031041", "area": "\u5317\u5340", "county": "\u82d7\u6817\u7e23", "admin_district": "\u901a\u9704\u93ae", "agency_name": "\u901a\u9704\u5149\u7530\u91ab\u9662", "address": "\u82d7\u6817\u7e23\u901a\u9704\u93ae\u4e2d\u5c71\u8def88\u865f", "phone_number": "037-759999", "longitude": "120.6803423", "latitude": "24.48958265"}, "69": {"gency_code": "0935010012", "area": "\u5317\u5340", "county": "\u82d7\u6817\u7e23", "admin_district": "\u82d7\u6817\u5e02", "agency_name": "\u6893\u69ae\u91ab\u7642\u793e\u5718\u6cd5\u4eba\u5f18\u5927\u91ab\u9662", "address": "\u82d7\u6817\u7e23\u82d7\u6817\u5e02\u65b0\u6771\u8857125\u865f", "phone_number": "037-320508", "longitude": "120.8215602", "latitude": "24.5517864"}, "70": {"gency_code": "1535040068", "area": "\u5317\u5340", "county": "\u82d7\u6817\u7e23", "admin_district": "\u7af9\u5357\u93ae", "agency_name": "\u6148\u7950\u91ab\u9662", "address": "\u82d7\u6817\u7e23\u7af9\u5357\u93ae\u6c11\u6cbb\u885717\u865f", "phone_number": "037-476589", "longitude": "120.8789169", "latitude": "24.68477405"}, "71": {"gency_code": "0936030018", "area": "\u4e2d\u5340", "county": "\u81fa\u4e2d\u5e02", "admin_district": "\u5927\u7532\u5340", "agency_name": "\u674e\u7d9c\u5408\u91ab\u7642\u793e\u5718\u6cd5\u4eba\u5927\u7532\u674e\u7d9c\u5408\u91ab\u9662", "address": "\u81fa\u4e2d\u5e02\u5927\u7532\u5340\u516b\u5fb7\u88572\u865f", "phone_number": "04-26862288", "longitude": "120.618073", "latitude": "24.350784"}, "72": {"gency_code": "1136200015", "area": "\u4e2d\u5340", "county": "\u81fa\u4e2d\u5e02", "admin_district": "\u5927\u91cc\u5340", "agency_name": "\u4ec1\u611b\u91ab\u7642\u8ca1\u5718\u6cd5\u4eba\u5927\u91cc\u4ec1\u611b\u91ab\u9662", "address": "\u81fa\u4e2d\u5e02\u5927\u91cc\u5340\u6771\u69ae\u8def\uff14\uff18\uff13\u865f", "phone_number": "04-24819900#11564", "longitude": "120.680434", "latitude": "24.109261"}, "73": {"gency_code": "1517011112", "area": "\u4e2d\u5340", "county": "\u81fa\u4e2d\u5e02", "admin_district": "\u4e2d\u5340", "agency_name": "\u6f84\u6e05\u7d9c\u5408\u91ab\u9662", "address": "\u81fa\u4e2d\u5e02\u4e2d\u5340\u5e73\u7b49\u8857139\u865f", "phone_number": "04-24632000", "longitude": "120.68161", "latitude": "24.142603"}, "74": {"gency_code": "0536190011", "area": "\u4e2d\u5340", "county": "\u81fa\u4e2d\u5e02", "admin_district": "\u592a\u5e73\u5340", "agency_name": "\u570b\u8ecd\u81fa\u4e2d\u7e3d\u91ab\u9662\u9644\u8a2d\u6c11\u773e\u8a3a\u7642\u670d\u52d9\u8655", "address": "\u81fa\u4e2d\u5e02\u592a\u5e73\u5340\u4e2d\u5c71\u8def\u4e8c\u6bb5\uff13\uff14\uff18\u865f", "phone_number": "04-23934191#525434", "longitude": "120.730557", "latitude": "24.150646"}, "75": {"gency_code": "0117030010", "area": "\u4e2d\u5340", "county": "\u81fa\u4e2d\u5e02", "admin_district": "\u897f\u5340", "agency_name": "\u885b\u751f\u798f\u5229\u90e8\u81fa\u4e2d\u91ab\u9662", "address": "\u81fa\u4e2d\u5e02\u897f\u5340\u5ee3\u6c11\u91cc\u4e09\u6c11\u8def1\u6bb5199\u865f", "phone_number": "04-22294411", "longitude": "120.6762712", "latitude": "24.1406262"}, "76": {"gency_code": "0917070029", "area": "\u4e2d\u5340", "county": "\u81fa\u4e2d\u5e02", "admin_district": "\u5357\u5c6f\u5340", "agency_name": "\u6797\u65b0\u91ab\u7642\u793e\u5718\u6cd5\u4eba\u6797\u65b0\u91ab\u9662", "address": "\u81fa\u4e2d\u5e02\u5357\u5c6f\u5340\u60e0\u4e2d\u8def3\u6bb536\u865f", "phone_number": "04-22586688", "longitude": "120.6403479", "latitude": "24.1490126"}, "77": {"gency_code": "0903150014", "area": "\u4e2d\u5340", "county": "\u81fa\u4e2d\u5e02", "admin_district": "\u70cf\u65e5\u5340", "agency_name": "\u6797\u65b0\u91ab\u7642\u793e\u5718\u6cd5\u4eba\u70cf\u65e5\u6797\u65b0\u91ab\u9662", "address": "\u81fa\u4e2d\u5e02\u70cf\u65e5\u5340\u69ae\u548c\u8def168\u865f", "phone_number": "04-23388766", "longitude": "120.598173", "latitude": "24.109851"}, "78": {"gency_code": "1136090519", "area": "\u4e2d\u5340", "county": "\u81fa\u4e2d\u5e02", "admin_district": "\u6f6d\u5b50\u5340", "agency_name": "\u4f5b\u6559\u6148\u6fdf\u91ab\u7642\u8ca1\u5718\u6cd5\u4eba\u81fa\u4e2d\u6148\u6fdf\u91ab\u9662", "address": "\u81fa\u4e2d\u5e02\u6f6d\u5b50\u5340\u8c50\u8208\u8def\u4e00\u6bb588\u865f", "phone_number": "04-36060666 ", "longitude": "120.721608", "latitude": "24.195792"}, "79": {"gency_code": "0136010010", "area": "\u4e2d\u5340", "county": "\u81fa\u4e2d\u5e02", "admin_district": "\u8c50\u539f\u5340", "agency_name": "\u885b\u751f\u798f\u5229\u90e8\u8c50\u539f\u91ab\u9662", "address": "\u81fa\u4e2d\u5e02\u8c50\u539f\u5340\u5b89\u5eb7\u8def\uff11\uff10\uff10\u865f", "phone_number": "04-25271180", "longitude": "120.725292", "latitude": "24.242707"}, "80": {"gency_code": "1303180011", "area": "\u4e2d\u5340", "county": "\u81fa\u4e2d\u5e02", "admin_district": "\u9727\u5cf0\u5340", "agency_name": "\u4e9e\u6d32\u5927\u5b78\u9644\u5c6c\u91ab\u9662", "address": "\u81fa\u4e2d\u5e02\u9727\u5cf0\u5340\u798f\u65b0\u8def222\u865f", "phone_number": "04-37061668", "longitude": "120.686043", "latitude": "24.053652"}, "81": {"gency_code": "0517050010", "area": "\u4e2d\u5340", "county": "\u81fa\u4e2d\u5e02", "admin_district": "\u5317\u5340", "agency_name": "\u570b\u8ecd\u81fa\u4e2d\u7e3d\u91ab\u9662\u9644\u8a2d\u6c11\u773e\u8a3a\u7642\u670d\u52d9\u8655\u4e2d\u6e05\u5206\u9662", "address": "\u81fa\u4e2d\u5e02\u5317\u5340\u5fe0\u660e\u8def500\u865f", "phone_number": "04-36020126", "longitude": "120.672018", "latitude": "24.162466"}, "82": {"gency_code": "1536100081", "area": "\u4e2d\u5340", "county": "\u81fa\u4e2d\u5e02", "admin_district": "\u5927\u96c5\u5340 ", "agency_name": "\u6e05\u6cc9\u91ab\u9662", "address": "\u81fa\u4e2d\u5e02\u5927\u96c5\u5340\u4e09\u548c\u91cc\u96c5\u6f6d\u8def\u56db\u6bb580\u865f ", "phone_number": "04-25605600 ", "longitude": "120.6663745", "latitude": "24.21705918"}, "83": {"gency_code": "1503190020", "area": "\u4e2d\u5340", "county": "\u81fa\u4e2d\u5e02", "admin_district": "\u592a\u5e73\u5340", "agency_name": "\u9577\u5b89\u91ab\u9662", "address": "\u81fa\u4e2d\u5e02\u592a\u5e73\u5340\u6c38\u5e73\u8def1\u6bb59\u865f", "phone_number": "04-36113611", "longitude": "120.7196895", "latitude": "24.13118697"}, "84": {"gency_code": "1436020013", "area": "\u4e2d\u5340", "county": "\u81fa\u4e2d\u5e02", "admin_district": "\u6771\u52e2\u5340", "agency_name": "\u6771\u52e2\u5340\u8fb2\u6703\u9644\u8a2d\u8fb2\u6c11\u91ab\u9662(\u6297\u539f\u5feb\u7be9\u670d\u52d9)", "address": "\u81fa\u4e2d\u5e02\u6771\u52e2\u5340\u8c50\u52e2\u8def297\u865f", "phone_number": "04-25771919", "longitude": "120.8291155", "latitude": "24.25348752"}, "85": {"gency_code": "1517020040", "area": "\u4e2d\u5340", "county": "\u81fa\u4e2d\u5e02", "admin_district": "\u6771\u5340", "agency_name": "\u53f0\u65b0\u91ab\u9662(\u6297\u539f\u5feb\u7be9\u670d\u52d9)", "address": "\u81fa\u4e2d\u5e02\u6771\u5340\u632f\u8208\u8def441\u865f", "phone_number": "04-22139966", "longitude": "120.7055594", "latitude": "24.13029581"}, "86": {"gency_code": "2336210034", "area": "\u4e2d\u5340", "county": "\u81fa\u4e2d\u5e02", "admin_district": "\u548c\u5e73\u5340", "agency_name": "\u68a8\u5c71\u885b\u751f\u6240(\u6297\u539f\u5feb\u7be9\u670d\u52d9)", "address": "\u81fa\u4e2d\u5e02\u548c\u5e73\u5340\u4e2d\u6b63\u8def68\u865f", "phone_number": "04-25989540", "longitude": "121.2551656", "latitude": "24.25437763"}, "87": {"gency_code": "3503030147", "area": "\u4e2d\u5340", "county": "\u81fa\u4e2d\u5e02", "admin_district": "\u5927\u7532\u5340", "agency_name": "\u5168\u4fe1\u8cf4\u8a3a\u6240(\u6297\u539f\u5feb\u7be9\u670d\u52d9)", "address": "\u81fa\u4e2d\u5e02\u5927\u7532\u5340\u7532\u540e\u8def\u4e94\u6bb5267\u865f", "phone_number": "04-26762248", "longitude": "120.6339478", "latitude": "24.34468752"}, "88": {"gency_code": "0638020014", "area": "\u4e2d\u5340", "county": "\u5357\u6295\u7e23", "admin_district": "\u57d4\u91cc\u93ae", "agency_name": "\u81fa\u4e2d\u69ae\u6c11\u7e3d\u91ab\u9662\u57d4\u91cc\u5206\u9662", "address": "\u5357\u6295\u7e23\u57d4\u91cc\u93ae\u8708\u86a3\u91cc\u69ae\u5149\u8def1\u865f", "phone_number": "049-2990-833#3000", "longitude": "120.995785", "latitude": "23.975834"}, "89": {"gency_code": "0938030016", "area": "\u4e2d\u5340", "county": "\u5357\u6295\u7e23", "admin_district": "\u8349\u5c6f\u93ae", "agency_name": "\u4f51\u6c11\u91ab\u7642\u793e\u5718\u6cd5\u4eba\u4f51\u6c11\u91ab\u9662", "address": "\u5357\u6295\u7e23\u8349\u5c6f\u93ae\u592a\u5e73\u8def\u4e00\u6bb5200\u865f", "phone_number": "0979-933795", "longitude": "120.681661", "latitude": "23.960591"}, "90": {"gency_code": "1138010019", "area": "\u4e2d\u5340", "county": "\u5357\u6295\u7e23", "admin_district": "\u5357\u6295\u5e02", "agency_name": "\u5f70\u5316\u57fa\u7763\u6559\u91ab\u7642\u8ca1\u5718\u6cd5\u4eba\u5357\u6295\u57fa\u7763\u6559\u91ab\u9662", "address": "\u5357\u6295\u7e23\u5357\u6295\u5e02\u4e2d\u8208\u8def870\u865f", "phone_number": "049-2225595#1195", "longitude": "120.683969", "latitude": "23.898903"}, "91": {"gency_code": "1138020015", "area": "\u4e2d\u5340", "county": "\u5357\u6295\u7e23", "admin_district": "\u57d4\u91cc\u93ae", "agency_name": "\u57d4\u57fa\u91ab\u7642\u8ca1\u5718\u6cd5\u4eba\u57d4\u91cc\u57fa\u7763\u6559\u91ab\u9662", "address": "\u5357\u6295\u7e23\u57d4\u91cc\u93ae\u9435\u5c71\u8def\u4e00\u865f(\u6025\u8a3a)", "phone_number": "049-2912151#1159", "longitude": "120.946524", "latitude": "23.970449"}, "92": {"gency_code": "1538041101", "area": "\u4e2d\u5340", "county": "\u5357\u6295\u7e23", "admin_district": "\u7af9\u5c71\u93ae", "agency_name": "\u7af9\u5c71\u79c0\u50b3\u91ab\u7642\u793e\u5718\u6cd5\u4eba\u7af9\u5c71\u79c0\u50b3\u91ab\u9662", "address": "\u5357\u6295\u7e23\u7af9\u5c71\u93ae\u96c6\u5c71\u8def\u4e8c\u6bb5\uff17\uff15\u865f", "phone_number": "049-2624266#32153", "longitude": "120.713958", "latitude": "23.800162"}, "93": {"gency_code": "1137080017", "area": "\u4e2d\u5340", "county": "\u5f70\u5316\u7e23", "admin_district": "\u4e8c\u6797\u93ae", "agency_name": "\u5f70\u5316\u57fa\u7763\u6559\u91ab\u7642\u8ca1\u5718\u6cd5\u4eba\u4e8c\u6797\u57fa\u7763\u6559\u91ab\u9662", "address": "\u5f70\u5316\u7e23\u4e8c\u6797\u93ae\u5357\u5149\u91cc\u5927\u6210\u8def\u4e00\u6bb5558\u865f\u3001\u5b89\u548c\u885740\u5df728\u865f2\u6a13", "phone_number": "04-8960128", "longitude": "120.363344", "latitude": "23.893608"}, "94": {"gency_code": "1137050019", "area": "\u4e2d\u5340", "county": "\u5f70\u5316\u7e23", "admin_district": "\u54e1\u6797\u5e02", "agency_name": "\u5f70\u5316\u57fa\u7763\u6559\u91ab\u7642\u8ca1\u5718\u6cd5\u4eba\u54e1\u6797\u57fa\u7763\u6559\u91ab\u9662", "address": "\u5f70\u5316\u7e23\u54e1\u6797\u5e02\u5357\u5e73\u91cc\u8392\u5149\u8def456\u865f", "phone_number": "04-8381456", "longitude": "120.566953", "latitude": "23.96275"}, "95": {"gency_code": "0137170515", "area": "\u4e2d\u5340", "county": "\u5f70\u5316\u7e23", "admin_district": "\u57d4\u5fc3\u9109", "agency_name": "\u885b\u751f\u798f\u5229\u90e8\u5f70\u5316\u91ab\u9662", "address": "\u5f70\u5316\u7e23\u57d4\u5fc3\u9109\u4e2d\u6b63\u8def\u4e8c\u6bb580\u865f", "phone_number": "04-8298686", "longitude": "120.527299", "latitude": "23.950225"}, "96": {"gency_code": "1137020520", "area": "\u4e2d\u5340", "county": "\u5f70\u5316\u7e23", "admin_district": "\u9e7f\u6e2f\u93ae", "agency_name": "\u5f70\u5316\u57fa\u7763\u6559\u91ab\u7642\u8ca1\u5718\u6cd5\u4eba\u9e7f\u6e2f\u57fa\u7763\u6559\u91ab\u9662", "address": "\u5f70\u5316\u7e23\u9e7f\u6e2f\u93ae\u4e2d\u6b63\u8def480\u865f", "phone_number": "04-7779595", "longitude": "120.438211", "latitude": "24.060379"}, "97": {"gency_code": "1537040066", "area": "\u4e2d\u5340", "county": "\u5f70\u5316\u7e23", "admin_district": "\u5317\u6597\u93ae", "agency_name": "\u5353\u91ab\u9662", "address": "\u5f70\u5316\u7e23\u5317\u6597\u93ae\u4e2d\u5c71\u8def\u4e00\u6bb5\uff13\uff11\uff11\u865f", "phone_number": "04-8882517", "longitude": "120.51554", "latitude": "23.872278"}, "98": {"gency_code": "0937030012", "area": "\u4e2d\u5340", "county": "\u5f70\u5316\u7e23", "admin_district": "\u548c\u7f8e\u93ae", "agency_name": "\u9053\u5468\u91ab\u7642\u793e\u5718\u6cd5\u4eba\u9053\u5468\u91ab\u9662", "address": "\u5f70\u5316\u7e23\u548c\u7f8e\u93ae\u548c\u5149\u8def180\u865f\u3001\u548c\u5584\u8def118\u865f", "phone_number": "04-7566995", "longitude": "120.491865", "latitude": "24.110572"}, "99": {"gency_code": "0937050014", "area": "\u4e2d\u5340", "county": "\u5f70\u5316\u7e23", "admin_district": "\u54e1\u6797\u5e02", "agency_name": "\u54e1\u69ae\u91ab\u7642\u793e\u5718\u6cd5\u4eba\u54e1\u69ae\u91ab\u9662\u54e1\u751f\u9662\u5340", "address": "\u5f70\u5316\u7e23\u54e1\u6797\u5e02\u8392\u5149\u8def359\u865f", "phone_number": "04-8383995", "longitude": "120.566404", "latitude": "23.95925"}, "100": {"gency_code": "0937050024", "area": "\u4e2d\u5340", "county": "\u5f70\u5316\u7e23", "admin_district": "\u54e1\u6797\u5e02", "agency_name": "\u60e0\u4f86\u91ab\u7642\u793e\u5718\u6cd5\u4eba\u5b8f\u4ec1\u91ab\u9662", "address": "\u5f70\u5316\u7e23\u54e1\u6797\u5e02\u60e0\u4f86\u885789\u865f", "phone_number": "04-8375878", "longitude": "120.570296", "latitude": "23.9551145"}, "101": {"gency_code": "1137010051", "area": "\u4e2d\u5340", "county": "\u5f70\u5316\u7e23", "admin_district": "\u5f70\u5316\u5e02", "agency_name": "\u5f70\u5316\u57fa\u7763\u6559\u91ab\u7642\u8ca1\u5718\u6cd5\u4eba\u6f22\u9298\u57fa\u7763\u6559\u91ab\u9662", "address": "\u5f70\u5316\u7e23\u5f70\u5316\u5e02\u4e2d\u5c71\u8def\u4e00\u6bb5366\u865f", "phone_number": "04-7113456", "longitude": "120.5356883", "latitude": "24.06129986"}, "102": {"gency_code": "1537050071", "area": "\u4e2d\u5340", "county": "\u5f70\u5316\u7e23", "admin_district": "\u54e1\u6797\u5e02", "agency_name": "\u54e1\u6797\u4f55\u91ab\u9662(\u6297\u539f\u5feb\u7be9\u670d\u52d9)", "address": "\u5f70\u5316\u7e23\u54e1\u6797\u5e02\u6c11\u65cf\u885733\u865f", "phone_number": "04-834-3838", "longitude": "120.5706243", "latitude": "23.95712642"}, "103": {"gency_code": "0439010527", "area": "\u5357\u5340", "county": "\u96f2\u6797\u7e23", "admin_district": "\u6597\u516d\u5e02", "agency_name": "\u570b\u7acb\u6210\u529f\u5927\u5b78\u91ab\u5b78\u9662\u9644\u8a2d\u91ab\u9662\u6597\u516d\u5206\u9662", "address": "\u96f2\u6797\u7e23\u6597\u516d\u5e02\u838a\u656c\u8def345\u865f", "phone_number": "05-5332121", "longitude": "120.545879", "latitude": "23.701971"}, "104": {"gency_code": "1339060017", "area": "\u5357\u5340", "county": "\u96f2\u6797\u7e23", "admin_district": "\u5317\u6e2f\u93ae", "agency_name": "\u4e2d\u570b\u91ab\u85e5\u5927\u5b78\u5317\u6e2f\u9644\u8a2d\u91ab\u9662", "address": "\u96f2\u6797\u7e23\u5317\u6e2f\u93ae\u65b0\u5fb7\u8def\uff11\uff12\uff13\u865f", "phone_number": "05-7837901", "longitude": "120.307229", "latitude": "23.590144"}, "105": {"gency_code": "1139040011", "area": "\u5357\u5340", "county": "\u96f2\u6797\u7e23", "admin_district": "\u897f\u87ba\u93ae", "agency_name": "\u5f70\u5316\u57fa\u7763\u6559\u91ab\u7642\u8ca1\u5718\u6cd5\u4eba\u96f2\u6797\u57fa\u7763\u6559\u91ab\u9662", "address": "\u96f2\u6797\u7e23\u897f\u87ba\u93ae\u65b0\u8c50\u91cc\u5e02\u5834\u5357\u8def371\u3001375\u865f", "phone_number": "05-5871111", "longitude": "120.441373", "latitude": "23.780705"}, "106": {"gency_code": "1139030015", "area": "\u5357\u5340", "county": "\u96f2\u6797\u7e23", "admin_district": "\u864e\u5c3e\u93ae", "agency_name": "\u5929\u4e3b\u6559\u82e5\u745f\u91ab\u7642\u8ca1\u5718\u6cd5\u4eba\u82e5\u745f\u91ab\u9662", "address": "\u96f2\u6797\u7e23\u864e\u5c3e\u93ae\u65b0\u751f\u8def74\u865f(\u6c11\u6b0a\u8def2\u865f)", "phone_number": "05-6337333", "longitude": "120.437343", "latitude": "23.708016"}, "107": {"gency_code": "1139130010", "area": "\u5357\u5340", "county": "\u96f2\u6797\u7e23", "admin_district": "\u9ea5\u5bee\u9109", "agency_name": "\u9577\u5e9a\u91ab\u7642\u8ca1\u5718\u6cd5\u4eba\u96f2\u6797\u9577\u5e9a\u7d00\u5ff5\u91ab\u9662", "address": "\u96f2\u6797\u7e23\u9ea5\u5bee\u9109\u4e2d\u8208\u6751\u5de5\u696d\u8def1500\u865f", "phone_number": "05-6915151", "longitude": "120.218628", "latitude": "23.795598"}, "108": {"gency_code": "0439010518", "area": "\u5357\u5340", "county": "\u96f2\u6797\u7e23", "admin_district": "\u864e\u5c3e\u93ae", "agency_name": "\u570b\u7acb\u81fa\u7063\u5927\u5b78\u91ab\u5b78\u9662\u9644\u8a2d\u91ab\u9662\u96f2\u6797\u5206\u9662\u864e\u5c3e\u9662\u5340", "address": "\u96f2\u6797\u7e23\u864e\u5c3e\u93ae\u5b78\u5e9c\u8def95\u865f", "phone_number": "05-6330002", "longitude": "120.4279313", "latitude": "23.73522006"}, "109": {"gency_code": "0622020017", "area": "\u5357\u5340", "county": "\u5609\u7fa9\u5e02", "admin_district": "\u897f\u5340", "agency_name": "\u81fa\u4e2d\u69ae\u6c11\u7e3d\u91ab\u9662\u5609\u7fa9\u5206\u9662(\u4e0a\u5348)", "address": "\u5609\u7fa9\u5e02\u897f\u5340\u5289\u539d\u91cc\u4e16\u8ce2\u8def\u4e8c\u6bb5\uff16\uff10\uff10\u865f", "phone_number": "05-2359630", "longitude": "120.42297", "latitude": "23.46755"}, "110": {"gency_code": "1122010021", "area": "\u5357\u5340", "county": "\u5609\u7fa9\u5e02", "admin_district": "\u6771\u5340", "agency_name": "\u5929\u4e3b\u6559\u4e2d\u83ef\u8056\u6bcd\u4fee\u5973\u6703\u91ab\u7642\u8ca1\u5718\u6cd5\u4eba\u5929\u4e3b\u6559\u8056\u99ac\u723e\u5b9a\u91ab\u9662(\u4e0b\u5348)", "address": "\u5609\u7fa9\u5e02\u6771\u5340\u77ed\u7af9\u91cc\u5927\u96c5\u8def\u4e8c\u6bb5565\u865f", "phone_number": "05-2756000", "longitude": "120.467671", "latitude": "23.47635"}, "111": {"gency_code": "0122020517", "area": "\u5357\u5340", "county": "\u5609\u7fa9\u5e02", "admin_district": "\u897f\u5340", "agency_name": "\u885b\u751f\u798f\u5229\u90e8\u5609\u7fa9\u91ab\u9662(\u4e0b\u5348\u3001\u665a\u4e0a)", "address": "\u5609\u7fa9\u5e02\u897f\u5340\u5317\u6e2f\u8def312\u865f", "phone_number": "05-2319090", "longitude": "120.42936", "latitude": "23.481544"}, "112": {"gency_code": "1522011115", "area": "\u5357\u5340", "county": "\u5609\u7fa9\u5e02", "admin_district": "\u6771\u5340", "agency_name": "\u967d\u660e\u91ab\u9662", "address": "\u5609\u7fa9\u5e02\u6771\u5340\u5433\u9cf3\u5317\u8def252\u865f", "phone_number": "05-2252000", "longitude": "120.4535518", "latitude": "23.48050296"}, "113": {"gency_code": "0140010028", "area": "\u5357\u5340", "county": "\u5609\u7fa9\u7e23", "admin_district": "\u6734\u5b50\u5e02", "agency_name": "\u885b\u751f\u798f\u5229\u90e8\u6734\u5b50\u91ab\u9662", "address": "\u5609\u7fa9\u7e23\u6734\u5b50\u5e02\u6c38\u548c\u91cc5\u9130\u61c9\u83dc\u57d4\uff14\uff12\uff0d\uff15\uff10\u865f", "phone_number": "05-3790600", "longitude": "120.234632", "latitude": "23.464349"}, "114": {"gency_code": "0640140012", "area": "\u5357\u5340", "county": "\u5609\u7fa9\u7e23", "admin_district": "\u7af9\u5d0e\u9109", "agency_name": "\u81fa\u4e2d\u69ae\u6c11\u7e3d\u91ab\u9662\u7063\u6a4b\u5206\u9662", "address": "\u5609\u7fa9\u7e23\u7af9\u5d0e\u9109\u7063\u6a4b\u6751\u77f3\u9ebb\u571238\u865f", "phone_number": "05-2791072", "longitude": "120.506664", "latitude": "23.487187"}, "115": {"gency_code": "0121050011", "area": "\u5357\u5340", "county": "\u81fa\u5357\u5e02", "admin_district": "\u4e2d\u897f\u5340", "agency_name": "\u885b\u751f\u798f\u5229\u90e8\u81fa\u5357\u91ab\u9662", "address": "\u81fa\u5357\u5e02\u4e2d\u897f\u5340\u4e2d\u5c71\u8def125\u865f", "phone_number": "06-2200055", "longitude": "120.208805", "latitude": "22.99638"}, "116": {"gency_code": "1141090512", "area": "\u5357\u5340", "county": "\u81fa\u5357\u5e02", "admin_district": "\u67f3\u71df\u5340", "agency_name": "\u5947\u7f8e\u91ab\u7642\u8ca1\u5718\u6cd5\u4eba\u67f3\u71df\u5947\u7f8e\u91ab\u9662", "address": "\u81fa\u5357\u5e02\u67f3\u71df\u5340\u592a\u5eb7\u91cc201\u865f", "phone_number": "06-6226999", "longitude": "120.324705", "latitude": "23.289269"}, "117": {"gency_code": "1121010018", "area": "\u5357\u5340", "county": "\u81fa\u5357\u5e02", "admin_district": "\u6771\u5340", "agency_name": "\u53f0\u7063\u57fa\u7763\u9577\u8001\u6559\u6703\u65b0\u6a13\u91ab\u7642\u8ca1\u5718\u6cd5\u4eba\u53f0\u5357\u65b0\u6a13\u91ab\u9662", "address": "\u81fa\u5357\u5e02\u6771\u5340\u6771\u9580\u8def1\u6bb557\u865f", "phone_number": "06-2748316", "longitude": "120.212807", "latitude": "22.989158"}, "118": {"gency_code": "1105040016", "area": "\u5357\u5340", "county": "\u81fa\u5357\u5e02", "admin_district": "\u9ebb\u8c46\u5340", "agency_name": "\u53f0\u7063\u57fa\u7763\u9577\u8001\u6559\u6703\u65b0\u6a13\u91ab\u7642\u8ca1\u5718\u6cd5\u4eba\u9ebb\u8c46\u65b0\u6a13\u91ab\u9662", "address": "\u81fa\u5357\u5e02\u9ebb\u8c46\u5340\u57e4\u982d\u91cc\u82d3\u5b50\u679720\u865f", "phone_number": "06-5702228", "longitude": "120.233033", "latitude": "23.179874"}, "119": {"gency_code": "1105050012", "area": "\u5357\u5340", "county": "\u81fa\u5357\u5e02", "admin_district": "\u4f73\u91cc\u5340", "agency_name": "\u5947\u7f8e\u91ab\u7642\u8ca1\u5718\u6cd5\u4eba\u4f73\u91cc\u5947\u7f8e\u91ab\u9662", "address": "\u81fa\u5357\u5e02\u4f73\u91cc\u5340\u4f73\u8208\u91cc\u4f73\u91cc\u8208606\u865f", "phone_number": "06-7263333", "longitude": "120.183662", "latitude": "23.181699"}, "120": {"gency_code": "0141270019", "area": "\u5357\u5340", "county": "\u81fa\u5357\u5e02", "admin_district": "\u4ec1\u5fb7\u5340", "agency_name": "\u885b\u751f\u798f\u5229\u90e8\u80f8\u8154\u75c5\u9662", "address": "\u81fa\u5357\u5e02\u4ec1\u5fb7\u5340\u4e2d\u5c71\u8def864\u865f", "phone_number": "06-2705911", "longitude": "120.241821", "latitude": "22.975271"}, "121": {"gency_code": "1521031104", "area": "\u5357\u5340", "county": "\u81fa\u5357\u5e02", "admin_district": "\u4e2d\u897f\u5340", "agency_name": "\u90ed\u7d9c\u5408\u91ab\u9662", "address": "\u81fa\u5357\u5e02\u4e2d\u897f\u5340\u6c11\u751f\u8def2\u6bb56.8.10.12.14.18.20.22.23.24.25.27.44\u865f\u53ca40\u300142\u865f1\u30012\u6a13", "phone_number": "06-2221111", "longitude": "120.198827", "latitude": "22.994984"}, "122": {"gency_code": "1305370013", "area": "\u5357\u5340", "county": "\u81fa\u5357\u5e02", "admin_district": "\u5b89\u5357\u5340", "agency_name": "\u81fa\u5357\u5e02\u7acb\u5b89\u5357\u91ab\u9662\u59d4\u8a17\u4e2d\u570b\u91ab\u85e5\u5927\u5b78\u8208\u5efa\u7d93\u71df", "address": "\u81fa\u5357\u5e02\u5b89\u5357\u5340\u9577\u548c\u8def\u4e8c\u6bb566\u865f", "phone_number": "06-3553111", "longitude": "120.223192", "latitude": "23.064232"}, "123": {"gency_code": "0905320023", "area": "\u5357\u5340", "county": "\u81fa\u5357\u5e02", "admin_district": "\u6771\u5340", "agency_name": "\u53f0\u5357\u5e02\u7acb\u91ab\u9662\uff08\u59d4\u8a17\u79c0\u50b3\u91ab\u7642\u793e\u5718\u6cd5\u4eba\u7d93\u71df)", "address": "\u81fa\u5357\u5e02\u6771\u5340\u5d07\u5fb7\u8def670\u865f", "phone_number": "06-2609926", "longitude": "120.226743", "latitude": "22.968535"}, "124": {"gency_code": "0141010013", "area": "\u5357\u5340", "county": "\u81fa\u5357\u5e02", "admin_district": "\u65b0\u71df\u5340", "agency_name": "\u885b\u751f\u798f\u5229\u90e8\u65b0\u71df\u91ab\u9662", "address": "\u81fa\u5357\u5e02\u65b0\u71df\u5340\u4fe1\u7fa9\u885773\u865f", "phone_number": "06-6351131", "longitude": "120.313307", "latitude": "23.308848"}, "125": {"gency_code": "0141060513", "area": "\u5357\u5340", "county": "\u81fa\u5357\u5e02", "admin_district": "\u65b0\u5316\u5340", "agency_name": "\u885b\u751f\u798f\u5229\u90e8\u81fa\u5357\u91ab\u9662\u65b0\u5316\u5206\u9662", "address": "\u81fa\u5357\u5e02\u65b0\u5316\u5340\u90a3\u62d4\u91cc\u7267\u583472\u865f", "phone_number": "06-5911929", "longitude": "120.336408", "latitude": "23.062491"}, "126": {"gency_code": "0641310018", "area": "\u5357\u5340", "county": "\u81fa\u5357\u5e02", "admin_district": "\u6c38\u5eb7\u5340", "agency_name": "\u9ad8\u96c4\u69ae\u6c11\u7e3d\u91ab\u9662\u81fa\u5357\u5206\u9662", "address": "\u81fa\u5357\u5e02\u6c38\u5eb7\u5340\u5fa9\u8208\u8def427\u865f", "phone_number": "06-3125101", "longitude": "120.240268", "latitude": "22.997284"}, "127": {"gency_code": "0905290020", "area": "\u5357\u5340", "county": "\u81fa\u5357\u5e02", "admin_district": "\u95dc\u5edf\u5340", "agency_name": "\u5409\u5b89\u91ab\u7642\u793e\u5718\u6cd5\u4eba\u5409\u5b89\u91ab\u9662", "address": "\u81fa\u5357\u5e02\u95dc\u5edf\u5340\u4e2d\u6b63\u8def435\u865f ", "phone_number": "06-6025115", "longitude": "120.3445776", "latitude": "22.96701263"}, "128": {"gency_code": "3505070032", "area": "\u5357\u5340", "county": "\u81fa\u5357\u5e02", "admin_district": "\u5584\u5316\u5340", "agency_name": "\u8abc\u4ec1\u8a3a\u6240(\u6297\u539f\u5feb\u7be9\u670d\u52d9)", "address": "\u81fa\u5357\u5e02\u5584\u5316\u5340\u4e2d\u6b63\u8def387\u865f", "phone_number": "06-5817267", "longitude": "120.2939464", "latitude": "23.12799491"}, "129": {"gency_code": "3541313172", "area": "\u5357\u5340", "county": "\u81fa\u5357\u5e02", "admin_district": "\u6c38\u5eb7\u5340", "agency_name": "\u4e2d\u6b63\u8033\u9f3b\u5589\u79d1\u8a3a\u6240(\u6297\u539f\u5feb\u7be9\u670d\u52d9)", "address": "\u81fa\u5357\u5e02\u6c38\u5eb7\u5340\u6b63\u5f37\u8857231\u865f", "phone_number": "06-2333566", "longitude": "120.2515169", "latitude": "23.02973265"}, "130": {"gency_code": "1102110011", "area": "\u9ad8\u5c4f\u5340", "county": "\u9ad8\u96c4\u5e02", "admin_district": "\u5c0f\u6e2f\u5340", "agency_name": "\u9ad8\u96c4\u5e02\u7acb\u5c0f\u6e2f\u91ab\u9662", "address": "\u9ad8\u96c4\u5e02\u5c0f\u6e2f\u5340\u5c71\u660e\u91cc\u5c71\u660e\u8def\u56db\u516b\u4e8c\u865fB1-10\u6a13", "phone_number": "07-8036783#3134", "longitude": "120.363101", "latitude": "22.567359"}, "131": {"gency_code": "0502030015", "area": "\u9ad8\u5c4f\u5340", "county": "\u9ad8\u96c4\u5e02", "admin_district": "\u5de6\u71df\u5340", "agency_name": "\u570b\u8ecd\u9ad8\u96c4\u7e3d\u91ab\u9662\u5de6\u71df\u5206\u9662\u9644\u8a2d\u6c11\u773e\u8a3a\u7642\u670d\u52d9\u8655", "address": "\u9ad8\u96c4\u5e02\u5de6\u71df\u5340\u8ecd\u6821\u8def\uff15\uff15\uff13\u865f", "phone_number": "07-5817121", "longitude": "120.290414", "latitude": "22.701528"}, "132": {"gency_code": "0902080013", "area": "\u9ad8\u5c4f\u5340", "county": "\u9ad8\u96c4\u5e02", "admin_district": "\u82d3\u96c5\u5340", "agency_name": "\u962e\u7d9c\u5408\u91ab\u9662", "address": "\u9ad8\u96c4\u5e02\u82d3\u96c5\u5340\u6210\u529f\u4e00\u8def156\u865f1-3\u6a13\u53ca162\u865fB1-10\u6a13.\u56db\u7dad\u56db\u8def136\u865fB4-12\u6a13.156\u865fB2,1-4,9-13\u6a13\u53ca166\u865fB2-11\u6a13.\u6c38\u660c\u885749\u865f1-6\u6a13", "phone_number": "07-3351121", "longitude": "120.297979", "latitude": "22.615753"}, "133": {"gency_code": "0102080017", "area": "\u9ad8\u5c4f\u5340", "county": "\u9ad8\u96c4\u5e02", "admin_district": "\u82d3\u96c5\u5340", "agency_name": "\u9ad8\u96c4\u5e02\u7acb\u6c11\u751f\u91ab\u9662", "address": "\u9ad8\u96c4\u5e02\u82d3\u96c5\u5340\u51f1\u65cb\u4e8c\u8def\uff11\uff13\uff14\u865f", "phone_number": "07-7222105", "longitude": "120.323592", "latitude": "22.626657"}, "134": {"gency_code": "0502080015", "area": "\u9ad8\u5c4f\u5340", "county": "\u9ad8\u96c4\u5e02", "admin_district": "\u82d3\u96c5\u5340", "agency_name": "\u570b\u8ecd\u9ad8\u96c4\u7e3d\u91ab\u9662\u9644\u8a2d\u6c11\u773e\u8a3a\u7642\u670d\u52d9\u8655", "address": "\u9ad8\u96c4\u5e02\u82d3\u96c5\u5340\u5efa\u8ecd\u8def\uff15\u865f", "phone_number": "07-7496751", "longitude": "120.34114", "latitude": "22.626236"}, "135": {"gency_code": "1502040021", "area": "\u9ad8\u5c4f\u5340", "county": "\u9ad8\u96c4\u5e02", "admin_district": "\u6960\u6893\u5340", "agency_name": "\u5065\u4ec1\u91ab\u9662", "address": "\u9ad8\u96c4\u5e02\u6960\u6893\u5340\u6960\u967d\u8def\uff11\uff13\uff16\u865f\u671d\u660e\u8def\uff11\uff13\uff10\u5df7\uff17\u5f04\uff11\u865f\uff11-\uff15\u6a13", "phone_number": "07-3517166", "longitude": "120.328988", "latitude": "22.72362"}, "136": {"gency_code": "0102020011", "area": "\u9ad8\u5c4f\u5340", "county": "\u9ad8\u96c4\u5e02", "admin_district": "\u9f13\u5c71\u5340", "agency_name": "\u9ad8\u96c4\u5e02\u7acb\u806f\u5408\u91ab\u9662", "address": "\u9ad8\u96c4\u5e02\u9f13\u5c71\u5340\u4e2d\u83ef\u4e00\u8def976\u865f", "phone_number": "07-5552565", "longitude": "120.291194", "latitude": "22.654927"}, "137": {"gency_code": "0142030019", "area": "\u9ad8\u5c4f\u5340", "county": "\u9ad8\u96c4\u5e02", "admin_district": "\u65d7\u5c71\u5340", "agency_name": "\u885b\u751f\u798f\u5229\u90e8\u65d7\u5c71\u91ab\u9662", "address": "\u9ad8\u96c4\u5e02\u65d7\u5c71\u5340\u4e2d\u5b78\u8def\uff16\uff10\u865f", "phone_number": "07-6613811", "longitude": "120.483264", "latitude": "22.880796"}, "138": {"gency_code": "0102070020", "area": "\u9ad8\u5c4f\u5340", "county": "\u9ad8\u96c4\u5e02", "admin_district": "\u524d\u91d1\u5340", "agency_name": "\u9ad8\u96c4\u5e02\u7acb\u5927\u540c\u91ab\u9662(\u59d4\u8a17\u8ca1\u5718\u6cd5\u4eba\u79c1\u7acb\u9ad8\u96c4\u91ab\u5b78\u5927\u5b78\u9644\u8a2d\u4e2d\u548c\u7d00\u5ff5\u91ab\u9662\u7d93\u71df)", "address": "\u9ad8\u96c4\u5e02\u524d\u91d1\u5340\u4e2d\u83ef\u4e09\u8def68\u865f", "phone_number": "07-2911101", "longitude": "120.296938", "latitude": "22.62715"}, "139": {"gency_code": "1542010052", "area": "\u9ad8\u5c4f\u5340", "county": "\u9ad8\u96c4\u5e02", "admin_district": "\u9cf3\u5c71\u5340", "agency_name": "\u5927\u6771\u91ab\u9662", "address": "\u9ad8\u96c4\u5e02\u9cf3\u5c71\u5340\u5149\u9060\u8def171-2\u865f", "phone_number": "07-7463762", "longitude": "120.362057", "latitude": "22.625364"}, "140": {"gency_code": "1542050056", "area": "\u9ad8\u5c4f\u5340", "county": "\u9ad8\u96c4\u5e02", "admin_district": "\u6797\u5712\u5340", "agency_name": "\u5efa\u4f51\u91ab\u9662", "address": "\u9ad8\u96c4\u5e02\u6797\u5712\u5340\u6771\u6797\u897f\u8def358\u865fB1-6\u6a13\u3001360\u865fB1-6\u6a13\u3001362\u865fB1-6\u6a13\u3001364\u5df710\u865fB1-6\u6a13\u3001399\u865f1-4\u6a13\u3001407\u5df77\u865f1-3\u6a13\u3001364\u5df710-2\u865f1-2\u6a13", "phone_number": "07-6437901", "longitude": "120.38668", "latitude": "22.503832"}, "141": {"gency_code": "1107350015", "area": "\u9ad8\u5c4f\u5340", "county": "\u9ad8\u96c4\u5e02", "admin_district": "\u82d3\u96c5\u5340", "agency_name": "\u5929\u4e3b\u6559\u8056\u529f\u91ab\u7642\u8ca1\u5718\u6cd5\u4eba\u8056\u529f\u91ab\u9662", "address": "\u9ad8\u96c4\u5e02\u82d3\u96c5\u5340\u5efa\u570b\u4e00\u8def352\u865f", "phone_number": "07-2238153", "longitude": "120.323966", "latitude": "22.63316"}, "142": {"gency_code": "0942020019", "area": "\u9ad8\u5c4f\u5340", "county": "\u9ad8\u96c4\u5e02", "admin_district": "\u5ca1\u5c71\u5340", "agency_name": "\u9ad8\u96c4\u5e02\u7acb\u5ca1\u5c71\u91ab\u9662\uff08\u59d4\u8a17\u79c0\u50b3\u91ab\u7642\u793e\u5718\u6cd5\u4eba\u7d93\u71df\uff09", "address": "\u9ad8\u96c4\u5e02\u5ca1\u5c71\u5340\u58fd\u5929\u8def12\u865f", "phone_number": "07-6240686", "longitude": "120.294443", "latitude": "22.796612"}, "143": {"gency_code": "1142010518", "area": "\u9ad8\u5c4f\u5340", "county": "\u9ad8\u96c4\u5e02", "admin_district": "\u9cf3\u5c71\u5340", "agency_name": "\u9ad8\u96c4\u5e02\u7acb\u9cf3\u5c71\u91ab\u9662\uff08\u59d4\u8a17\u9577\u5e9a\u91ab\u7642\u8ca1\u5718\u6cd5\u4eba\u7d93\u71df\uff09", "address": "\u9ad8\u96c4\u5e02\u9cf3\u5c71\u5340\u7d93\u6b66\u8def42\u865f", "phone_number": "07-7418151", "longitude": "120.362974", "latitude": "22.628244"}, "144": {"gency_code": "0542020011", "area": "\u9ad8\u5c4f\u5340", "county": "\u9ad8\u96c4\u5e02", "admin_district": "\u5ca1\u5c71\u5340", "agency_name": "\u570b\u8ecd\u9ad8\u96c4\u7e3d\u91ab\u9662\u5ca1\u5c71\u5206\u9662\u9644\u8a2d\u6c11\u773e\u8a3a\u7642\u670d\u52d9\u8655", "address": "\u9ad8\u96c4\u5e02\u5ca1\u5c71\u5340\u5927\u7fa9\u4e8c\u8def\uff11\u865f", "phone_number": "07-6250919#1099", "longitude": "120.285874", "latitude": "22.789456"}, "145": {"gency_code": "1107120017", "area": "\u9ad8\u5c4f\u5340", "county": "\u9ad8\u96c4\u5e02", "admin_district": "\u71d5\u5de2\u5340", "agency_name": "\u7fa9\u5927\u91ab\u7642\u8ca1\u5718\u6cd5\u4eba\u7fa9\u5927\u764c\u6cbb\u7642\u91ab\u9662", "address": "\u9ad8\u96c4\u5e02\u71d5\u5de2\u5340\u89d2\u5bbf\u91cc\u7fa9\u5927\u8def1\u865f \u6025\u8a3a\u6236\u5916\u63a1\u6aa2\u7ad9", "phone_number": "0978-060259 ", "longitude": "120.364996", "latitude": "22.766107"}, "146": {"gency_code": "1307370011", "area": "\u9ad8\u5c4f\u5340", "county": "\u9ad8\u96c4\u5e02", "admin_district": "\u65d7\u6d25\u5340", "agency_name": "\u9ad8\u96c4\u5e02\u7acb\u65d7\u6d25\u91ab\u9662(\u59d4\u8a17\u8ca1\u5718\u6cd5\u4eba\u79c1\u7acb\u9ad8\u96c4\u91ab\u5b78\u5927\u5b78\u7d93\u71df)", "address": "\u9ad8\u96c4\u5e02\u65d7\u6d25\u5340\u65d7\u6e2f\u8def33\u865f1\u6a13(\u6025\u8a3a\u5ba4)", "phone_number": "07-5711188", "longitude": "120.285113", "latitude": "22.59021"}, "147": {"gency_code": "1542011282", "area": "\u9ad8\u5c4f\u5340", "county": "\u9ad8\u96c4\u5e02", "admin_district": "\u9cf3\u5c71\u5340", "agency_name": "\u674f\u548c\u91ab\u9662", "address": "\u9ad8\u96c4\u5e02\u9cf3\u5c71\u5340\u4e94\u7532\u4e8c\u8def385\u865f\u3001387\u865f\u3001389\u865f\u3001391\u865fB1-9\u6a13\u3001470\u865f1\u6a13", "phone_number": "07-7613111", "longitude": "120.335627", "latitude": "22.597673"}, "148": {"gency_code": "1107320017", "area": "\u9ad8\u5c4f\u5340", "county": "\u9ad8\u96c4\u5e02", "admin_district": "\u4e09\u6c11\u5340", "agency_name": "\u7fa9\u5927\u91ab\u7642\u8ca1\u5718\u6cd5\u4eba\u7fa9\u5927\u5927\u660c\u91ab\u9662", "address": "\u9ad8\u96c4\u5e02\u4e09\u6c11\u5340\u5927\u660c\u4e00\u8def305\u865f", "phone_number": "07-5599123", "longitude": "120.3199", "latitude": "22.657727"}, "149": {"gency_code": "1502110064", "area": "\u9ad8\u5c4f\u5340", "county": "\u9ad8\u96c4\u5e02", "admin_district": "\u5c0f\u6e2f\u5340", "agency_name": "\u5b89\u6cf0\u91ab\u9662", "address": "\u9ad8\u96c4\u5e02\u5c0f\u6e2f\u5340\u5b78\u5e9c\u8def111\u865f", "phone_number": "07-8017856", "longitude": "120.3617306", "latitude": "22.56540243"}, "150": {"gency_code": "0643130018", "area": "\u9ad8\u5c4f\u5340", "county": "\u5c4f\u6771\u7e23", "admin_district": "\u5167\u57d4\u9109", "agency_name": "\u9ad8\u96c4\u69ae\u6c11\u7e3d\u91ab\u9662\u5c4f\u6771\u5206\u9662", "address": "\u5c4f\u6771\u7e23\u5167\u57d4\u9109\u9f8d\u6f6d\u6751\u662d\u52dd\u8def\u5b89\u5e73\u4e00\u5df7\u4e00\u865f", "phone_number": "08-7704115", "longitude": "120.599009", "latitude": "22.674418"}, "151": {"gency_code": "0143010011", "area": "\u9ad8\u5c4f\u5340", "county": "\u5c4f\u6771\u7e23", "admin_district": "\u5c4f\u6771\u5e02", "agency_name": "\u885b\u751f\u798f\u5229\u90e8\u5c4f\u6771\u91ab\u9662", "address": "\u5c4f\u6771\u7e23\u5c4f\u6771\u5e02\u81ea\u7531\u8def\uff12\uff17\uff10\u865f", "phone_number": "08-7363011", "longitude": "120.495546", "latitude": "22.673264"}, "152": {"gency_code": "1343030018", "area": "\u9ad8\u5c4f\u5340", "county": "\u5c4f\u6771\u7e23", "admin_district": "\u6771\u6e2f\u93ae", "agency_name": "\u8f14\u82f1\u79d1\u6280\u5927\u5b78\u9644\u8a2d\u91ab\u9662", "address": "\u5c4f\u6771\u7e23\u6771\u6e2f\u93ae\u4e2d\u5c71\u8def\uff15\u865f\u53ca\u5149\u5fa9\u8def\u4e00\u6bb5318\u865f", "phone_number": "08-8323146", "longitude": "120.452734", "latitude": "22.465199"}, "153": {"gency_code": "0943160012", "area": "\u9ad8\u5c4f\u5340", "county": "\u5c4f\u6771\u7e23", "admin_district": "\u678b\u5bee\u9109", "agency_name": "\u678b\u5bee\u91ab\u7642\u793e\u5718\u6cd5\u4eba\u678b\u5bee\u91ab\u9662", "address": "\u5c4f\u6771\u7e23\u678b\u5bee\u9109\u5b89\u6a02\u6751\u4e2d\u5c71\u8def139\u865f(\u4ee3\u8868\u865f)\u53ca\u678b\u5bee\u9109\u5b89\u6a02\u6751\u9686\u5c71\u8def59\u865f", "phone_number": "08-8789991", "longitude": "120.596376", "latitude": "22.36395"}, "154": {"gency_code": "1143010012", "area": "\u9ad8\u5c4f\u5340", "county": "\u5c4f\u6771\u7e23", "admin_district": "\u5c4f\u6771\u5e02", "agency_name": "\u5c4f\u57fa\u91ab\u7642\u8ca1\u5718\u6cd5\u4eba\u5c4f\u6771\u57fa\u7763\u6559\u91ab\u9662", "address": "\u5c4f\u6771\u7e23\u5c4f\u6771\u5e02\u5927\u9023\u8def\uff16\uff10\u865f", "phone_number": "08-7368686", "longitude": "120.502626", "latitude": "22.682151"}, "155": {"gency_code": "1543010109", "area": "\u9ad8\u5c4f\u5340", "county": "\u5c4f\u6771\u7e23", "admin_district": "\u5c4f\u6771\u5e02", "agency_name": "\u570b\u4ec1\u91ab\u9662", "address": "\u5c4f\u6771\u7e23\u5c4f\u6771\u5e02\u6c11\u751f\u6771\u8def12-2\u865f", "phone_number": "08-7223000", "longitude": "120.514572", "latitude": "22.658334"}, "156": {"gency_code": "0543010019", "area": "\u9ad8\u5c4f\u5340", "county": "\u5c4f\u6771\u7e23", "admin_district": "\u5c4f\u6771\u5e02", "agency_name": "\u570b\u8ecd\u9ad8\u96c4\u7e3d\u91ab\u9662\u9644\u8a2d\u5c4f\u6771\u6c11\u773e\u8a3a\u7642\u670d\u52d9\u8655", "address": "\u5c4f\u6771\u7e23\u5c4f\u6771\u5e02\u5927\u6e56\u8def\uff15\uff18\u5df7\uff12\uff12\u865f", "phone_number": "08-7560756", "longitude": "120.487574", "latitude": "22.633503"}, "157": {"gency_code": "0943010017", "area": "\u9ad8\u5c4f\u5340", "county": "\u5c4f\u6771\u7e23", "admin_district": "\u5c4f\u6771\u5e02", "agency_name": "\u5bf6\u5efa\u91ab\u7642\u793e\u5718\u6cd5\u4eba\u5bf6\u5efa\u91ab\u9662", "address": "\u5c4f\u6771\u7e23\u5c4f\u6771\u5e02\u4e2d\u5c71\u8def123\u865f", "phone_number": "08-7665995", "longitude": "120.484301", "latitude": "22.681631"}, "158": {"gency_code": "1143040010", "area": "\u9ad8\u5c4f\u5340", "county": "\u5c4f\u6771\u7e23", "admin_district": "\u6046\u6625\u93ae", "agency_name": "\u6046\u57fa\u91ab\u7642\u8ca1\u5718\u6cd5\u4eba\u6046\u6625\u57fa\u7763\u6559\u91ab\u9662", "address": "\u5c4f\u6771\u7e23\u6046\u6625\u93ae\u5c71\u8173\u91cc\u6046\u897f\u8def21\u865f", "phone_number": "08-8892293", "longitude": "120.741104", "latitude": "22.002365"}, "159": {"gency_code": "0143040019", "area": "\u9ad8\u5c4f\u5340", "county": "\u5c4f\u6771\u7e23", "admin_district": "\u6046\u6625\u93ae", "agency_name": "\u885b\u751f\u798f\u5229\u90e8\u6046\u6625\u65c5\u904a\u91ab\u9662", "address": "\u5c4f\u6771\u7e23\u6046\u6625\u93ae\u5c71\u8173\u91cc\u6046\u5357\u8def\uff11\uff18\uff18\u865f", "phone_number": "08-8892704", "longitude": "120.744829", "latitude": "21.999154"}, "160": {"gency_code": "1543110033", "area": "\u9ad8\u5c4f\u5340", "county": "\u5c4f\u6771\u7e23", "admin_district": "\u9ad8\u6a39\u9109", "agency_name": "\u5927\u65b0\u91ab\u9662", "address": "\u5c4f\u6771\u7e23\u9ad8\u6a39\u9109\u9577\u69ae\u6751\u8208\u4e2d\u8def208\u865f", "phone_number": "08-7962033", "longitude": "120.599646", "latitude": "22.823792"}, "161": {"gency_code": "0943020013", "area": "\u9ad8\u5c4f\u5340", "county": "\u5c4f\u6771\u7e23", "admin_district": "\u6f6e\u5dde\u93ae", "agency_name": "\u5b89\u6cf0\u91ab\u7642\u793e\u5718\u6cd5\u4eba\u6f6e\u5dde\u5b89\u6cf0\u91ab\u9662", "address": "\u5c4f\u6771\u7e23\u6f6e\u5dde\u93ae\u4e09\u661f\u91cc\u56db\u7dad\u8def162\u53ca193\u865f", "phone_number": "08-7800888", "longitude": "120.546964", "latitude": "22.554031"}, "162": {"gency_code": "0943040015", "area": "\u9ad8\u5c4f\u5340", "county": "\u5c4f\u6771\u7e23", "admin_district": "\u6046\u6625\u93ae", "agency_name": "\u5357\u9580\u91ab\u7642\u793e\u5718\u6cd5\u4eba\u5357\u9580\u91ab\u9662", "address": "\u5c4f\u6771\u7e23\u6046\u6625\u93ae\u5357\u9580\u8def10\u865f", "phone_number": "08-8894568 ", "longitude": "120.7453691", "latitude": "22.00095622"}, "163": {"gency_code": "2344060011", "area": "\u9ad8\u5c4f\u5340", "county": "\u6f8e\u6e56\u7e23", "admin_district": "\u4e03\u7f8e\u9109", "agency_name": "\u4e03\u7f8e\u9109\u885b\u751f\u6240", "address": "\u6f8e\u6e56\u7e23\u4e03\u7f8e\u9109\u4e2d\u548c\u6751\u57d4\u516754\u865f", "phone_number": "06-9971005 ", "longitude": "119.430963", "latitude": "23.204103"}, "164": {"gency_code": "2344030031", "area": "\u9ad8\u5c4f\u5340", "county": "\u6f8e\u6e56\u7e23", "admin_district": "\u767d\u6c99\u9109", "agency_name": "\u5409\u8c9d\u885b\u751f\u6240", "address": "\u6f8e\u6e56\u7e23\u767d\u6c99\u9109\u5409\u8c9d\u67518\uff0d13\u865f", "phone_number": "06-9911430", "longitude": "119.610071", "latitude": "23.740119"}, "165": {"gency_code": "2344030022", "area": "\u9ad8\u5c4f\u5340", "county": "\u6f8e\u6e56\u7e23", "admin_district": "\u767d\u6c99\u9109", "agency_name": "\u9ce5\u5dbc\u885b\u751f\u6240", "address": "\u6f8e\u6e56\u7e23\u767d\u6c99\u9109\u9ce5\u5dbc\u6f01\u6e2f\u65b0\u67513\u865f", "phone_number": "06-9916092", "longitude": "119.660087", "latitude": "23.660035"}, "166": {"gency_code": "0144010015", "area": "\u9ad8\u5c4f\u5340", "county": "\u6f8e\u6e56\u7e23", "admin_district": "\u99ac\u516c\u5e02", "agency_name": "\u885b\u751f\u798f\u5229\u90e8\u6f8e\u6e56\u91ab\u9662", "address": "\u6f8e\u6e56\u7e23\u99ac\u516c\u5e02\u4e2d\u6b63\u8def10\u865f", "phone_number": "06-9261151 ", "longitude": "119.565423", "latitude": "23.564553"}, "167": {"gency_code": "2344050024", "area": "\u9ad8\u5c4f\u5340", "county": "\u6f8e\u6e56\u7e23", "admin_district": "\u671b\u5b89\u9109", "agency_name": "\u5c07\u8ecd\u885b\u751f\u6240", "address": "\u6f8e\u6e56\u7e23\u671b\u5b89\u9109\u5c07\u8ecd\u675112\u9130\u5c07\u8ecd\u6fb31\u4e4b3\u865f", "phone_number": "06-9902066", "longitude": "119.521637", "latitude": "23.361397"}, "168": {"gency_code": "2344050015", "area": "\u9ad8\u5c4f\u5340", "county": "\u6f8e\u6e56\u7e23", "admin_district": "\u671b\u5b89\u9109", "agency_name": "\u82b1\u5dbc\u885b\u751f\u5ba4", "address": "\u6f8e\u6e56\u7e23\u671b\u5b89\u9109\u82b1\u5dbc5\u865f", "phone_number": "06-9991739", "longitude": "119.320671", "latitude": "23.403736"}, "169": {"gency_code": "2344050015", "area": "\u9ad8\u5c4f\u5340", "county": "\u6f8e\u6e56\u7e23", "admin_district": "\u671b\u5b89\u9109", "agency_name": "\u671b\u5b89\u9109\u885b\u751f\u6240", "address": "\u6f8e\u6e56\u7e23\u671b\u5b89\u9109\u897f\u5b89\u675136\uff0d7\u865f", "phone_number": "06-9991036 ", "longitude": "119.497377", "latitude": "23.361897"}, "170": {"gency_code": "0645020015", "area": "\u6771\u5340", "county": "\u82b1\u84ee\u7e23", "admin_district": "\u9cf3\u6797\u93ae", "agency_name": "\u81fa\u5317\u69ae\u6c11\u7e3d\u91ab\u9662\u9cf3\u6797\u5206\u9662", "address": "\u82b1\u84ee\u7e23\u9cf3\u6797\u93ae\u4e2d\u6b63\u8def\u4e00\u6bb52\u865f", "phone_number": "03-8764539 ", "longitude": "121.439215", "latitude": "23.727428"}, "171": {"gency_code": "0145080011", "area": "\u6771\u5340", "county": "\u82b1\u84ee\u7e23", "admin_district": "\u8c50\u6ff1\u9109", "agency_name": "\u885b\u751f\u798f\u5229\u90e8\u82b1\u84ee\u91ab\u9662\u8c50\u6ff1\u539f\u4f4f\u6c11\u5206\u9662", "address": "\u82b1\u84ee\u7e23\u8c50\u6ff1\u9109\u5149\u8c50\u8def41\u865f", "phone_number": "03-8791385", "longitude": "121.521184", "latitude": "23.601957"}, "172": {"gency_code": "0545040515", "area": "\u6771\u5340", "county": "\u82b1\u84ee\u7e23", "admin_district": "\u65b0\u57ce\u9109", "agency_name": "\u570b\u8ecd\u82b1\u84ee\u7e3d\u91ab\u9662\u9644\u8a2d\u6c11\u773e\u8a3a\u7642\u670d\u52d9\u8655", "address": "\u82b1\u84ee\u7e23\u65b0\u57ce\u9109\u5609\u91cc\u8def163\u865f", "phone_number": "03-8263151", "longitude": "121.6074", "latitude": "24.024429"}, "173": {"gency_code": "1145010038", "area": "\u6771\u5340", "county": "\u82b1\u84ee\u7e23", "admin_district": "\u82b1\u84ee\u5e02", "agency_name": "\u81fa\u7063\u57fa\u7763\u6559\u9580\u8afe\u6703\u91ab\u7642\u8ca1\u5718\u6cd5\u4eba\u9580\u8afe\u91ab\u9662", "address": "\u82b1\u84ee\u7e23\u82b1\u84ee\u5e02\u6c11\u6b0a\u8def\uff14\uff14\u865f", "phone_number": "03-8241234", "longitude": "121.626753", "latitude": "23.988335"}, "174": {"gency_code": "0645030011", "area": "\u6771\u5340", "county": "\u82b1\u84ee\u7e23", "admin_district": "\u7389\u91cc\u93ae", "agency_name": "\u81fa\u5317\u69ae\u6c11\u7e3d\u91ab\u9662\u7389\u91cc\u5206\u9662", "address": "\u82b1\u84ee\u7e23\u7389\u91cc\u93ae\u65b0\u8208\u8857\uff19\uff11\u865f", "phone_number": "03-8883141 ", "longitude": "121.312031", "latitude": "23.339213"}, "175": {"gency_code": "0145010019", "area": "\u6771\u5340", "county": "\u82b1\u84ee\u7e23", "admin_district": "\u82b1\u84ee\u5e02", "agency_name": "\u885b\u751f\u798f\u5229\u90e8\u82b1\u84ee\u91ab\u9662", "address": "\u82b1\u84ee\u7e23\u82b1\u84ee\u5e02\u4e2d\u6b63\u8def600\u865f", "phone_number": "03-8358141 ", "longitude": "121.611421", "latitude": "23.979207"}, "176": {"gency_code": "1145030012", "area": "\u6771\u5340", "county": "\u82b1\u84ee\u7e23", "admin_district": "\u7389\u91cc\u93ae ", "agency_name": "\u4f5b\u6559\u6148\u6fdf\u91ab\u7642\u8ca1\u5718\u6cd5\u4eba\u7389\u91cc\u6148\u6fdf\u91ab\u9662 ", "address": "\u82b1\u84ee\u7e23\u7389\u91cc\u93ae\u6c11\u6b0a\u88571\uff0d1\u865f ", "phone_number": "03-8882718 ", "longitude": "121.3185952", "latitude": "23.33492847"}, "177": {"gency_code": "0146020537", "area": "\u6771\u5340", "county": "\u81fa\u6771\u7e23", "admin_district": "\u6210\u529f\u93ae", "agency_name": "\u885b\u751f\u798f\u5229\u90e8\u81fa\u6771\u91ab\u9662\u6210\u529f\u5206\u9662", "address": "\u81fa\u6771\u7e23\u6210\u529f\u93ae\u4e2d\u5c71\u6771\u8def32\u865f", "phone_number": "089-854748", "longitude": "121.377829", "latitude": "23.099296"}, "178": {"gency_code": "0646010013", "area": "\u6771\u5340", "county": "\u81fa\u6771\u7e23", "admin_district": "\u53f0\u6771\u5e02", "agency_name": "\u81fa\u5317\u69ae\u6c11\u7e3d\u91ab\u9662\u81fa\u6771\u5206\u9662", "address": "\u81fa\u6771\u7e23\u53f0\u6771\u5e02\u66f4\u751f\u8def1000\u865f", "phone_number": "089-222528", "longitude": "121.132431", "latitude": "22.772346"}, "179": {"gency_code": "1146030516", "area": "\u6771\u5340", "county": "\u81fa\u6771\u7e23", "admin_district": "\u95dc\u5c71\u93ae", "agency_name": "\u4f5b\u6559\u6148\u6fdf\u91ab\u7642\u8ca1\u5718\u6cd5\u4eba\u95dc\u5c71\u6148\u6fdf\u91ab\u9662", "address": "\u81fa\u6771\u7e23\u95dc\u5c71\u93ae\u548c\u5e73\u8def\uff11\uff12\uff15\u4e4b\uff15\u865f", "phone_number": "089-814880", "longitude": "121.166766", "latitude": "23.057281"}, "180": {"gency_code": "1146010032", "area": "\u6771\u5340", "county": "\u81fa\u6771\u7e23", "admin_district": "\u53f0\u6771\u5e02", "agency_name": "\u6771\u57fa\u91ab\u7642\u8ca1\u5718\u6cd5\u4eba\u53f0\u6771\u57fa\u7763\u6559\u91ab\u9662", "address": "\u81fa\u6771\u7e23\u53f0\u6771\u5e02\u958b\u5c01\u8857\uff13\uff15\uff10\u865f", "phone_number": "089-960888", "longitude": "121.146016", "latitude": "22.763821"}, "181": {"gency_code": "0146010013", "area": "\u6771\u5340", "county": "\u81fa\u6771\u7e23", "admin_district": "\u53f0\u6771\u5e02", "agency_name": "\u885b\u751f\u798f\u5229\u90e8\u81fa\u6771\u91ab\u9662", "address": "\u81fa\u6771\u7e23\u53f0\u6771\u5e02\u4e94\u6b0a\u8857\uff11\u865f", "phone_number": "089-324112 ", "longitude": "121.150649", "latitude": "22.757025"}, "182": {"gency_code": "1146010041", "area": "\u6771\u5340", "county": "\u81fa\u6771\u7e23", "admin_district": "\u53f0\u6771\u5e02", "agency_name": "\u5929\u4e3b\u6559\u82b1\u84ee\u6559\u5340\u91ab\u7642\u8ca1\u5718\u6cd5\u4eba\u53f0\u6771\u8056\u6bcd\u91ab\u9662", "address": "\u81fa\u6771\u7e23\u53f0\u6771\u5e02\u676d\u5dde\u88572\u865f", "phone_number": "089-322833", "longitude": "121.1463877", "latitude": "22.7577577"}, "183": {"gency_code": "0291010010", "area": "\u53f0\u5317\u5340", "county": "\u9023\u6c5f\u7e23", "admin_district": "\u5357\u7aff\u9109", "agency_name": "\u9023\u6c5f\u7e23\u7acb\u91ab\u9662", "address": "\u9023\u6c5f\u7e23\u5357\u7aff\u9109\u5fa9\u8208\u6751217\u865f", "phone_number": "083-623995 ", "longitude": "119.948945", "latitude": "26.161011"}, "184": {"gency_code": "2391020010", "area": "\u53f0\u5317\u5340", "county": "\u9023\u6c5f\u7e23", "admin_district": "\u5317\u7aff\u9109", "agency_name": "\u5317\u7aff\u885b\u751f\u6240", "address": "\u9023\u6c5f\u7e23\u5317\u7aff\u9109\u5858\u5c90\u675125\u865f", "phone_number": "083-655592 ", "longitude": "119.9963", "latitude": "26.223229"}, "185": {"gency_code": "2391040012", "area": "\u53f0\u5317\u5340", "county": "\u9023\u6c5f\u7e23", "admin_district": "\u6771\u5f15\u9109", "agency_name": "\u6771\u5f15\u885b\u751f\u6240", "address": "\u9023\u6c5f\u7e23\u6771\u5f15\u9109\u4e2d\u67f3\u6751123\u865f", "phone_number": "083-677206 ", "longitude": "120.490658", "latitude": "26.367287"}, "186": {"gency_code": "2391030016", "area": "\u53f0\u5317\u5340", "county": "\u9023\u6c5f\u7e23", "admin_district": "\u8392\u5149\u9109", "agency_name": "\u897f\u8392\u885b\u751f\u6240", "address": "\u9023\u6c5f\u7e23\u8392\u5149\u9109\u9752\u5e06\u675114\uff0d1\u865f", "phone_number": "083-689122 ", "longitude": "119.937967", "latitude": "25.967984"}, "187": {"gency_code": "2391030026", "area": "\u53f0\u5317\u5340", "county": "\u9023\u6c5f\u7e23", "admin_district": "\u8392\u5149\u9109", "agency_name": "\u6771\u8392\u885b\u751f\u6240", "address": "\u9023\u6c5f\u7e23\u8392\u5149\u9109\u5927\u576a\u675130\uff0d1\u865f", "phone_number": "083-689038 ", "longitude": "119.976883", "latitude": "25.958155"}, "188": {"gency_code": "2346110014", "area": "\u6771\u5340", "county": "\u81fa\u6771\u7e23", "admin_district": "\u7da0\u5cf6\u9109", "agency_name": "\u81fa\u6771\u7e23\u7da0\u5cf6\u9109\u885b\u751f\u6240", "address": "\u81fa\u6771\u7e23\u7da0\u5cf6\u9109\u4e2d\u5bee\u67511\uff0d1\u865f", "phone_number": "089-672511", "longitude": "121.469647", "latitude": "22.673159"}, "189": {"gency_code": "2346160014", "area": "\u6771\u5340", "county": "\u81fa\u6771\u7e23", "admin_district": "\u862d\u5dbc\u9109", "agency_name": "\u81fa\u6771\u7e23\u862d\u5dbc\u9109\u885b\u751f\u6240", "address": "\u81fa\u6771\u7e23\u862d\u5dbc\u9109\u7d05\u982d\u675136\u865f", "phone_number": "089-732575", "longitude": "121.554739", "latitude": "22.024836"}, "190": {"gency_code": "0190030516", "area": "\u53f0\u5317\u5340", "county": "\u91d1\u9580\u7e23", "admin_district": "\u70c8\u5dbc\u9109", "agency_name": "\u885b\u751f\u798f\u5229\u90e8\u91d1\u9580\u91ab\u9662-\u70c8\u5dbc\u9662\u5340", "address": "\u91d1\u9580\u7e23\u70c8\u5dbc\u9109\u540e\u4e9537\u865f", "phone_number": "082-364268", "longitude": "118.242498", "latitude": "24.4309"}}
